Id,StarbucksId,Name,StoreNumber,PhoneNumber,Street1,Street2,Street3,City,CountrySubdivisionCode,CountryCode,PostalCode,Longitude,Latitude,Timezone
1f2d204f-e773-4361-9158-0008307dbd5e,10357,Target Virginia T-847,76666-97597,218-741-6603,1001 13th St S,,,Virginia,MN,US,557923254,-92.55,47.51,-360
49455e22-49e9-461f-912c-00092386eaee,6557,PDX A 2,75916-104381,503-284-4008,"7000 NE Airport Way, MB#3",,,Portland,OR,US,972181031,-122.59,45.59,-480
1316ebf8-ee4a-479d-a11d-000964af367b,1010600,235 Bourke Street,25294-240419,,235-251 Bourke St,"Shops 5,6 & 10",,Melbourne,VIC,AU,3000,144.97,-37.81,660
1b8b9007-4587-4942-bf29-000a0af78161,1014921,Oasis Al-Kharj,27350-247327,,King Abdullah Rd,Al Khuzama,,RIYADH,1,SA,,47.27,24.13,180
072752df-b30b-4f3f-a9b8-000ae32f8666,14667,Target Trumbull T-1956,76306-93245,203-455-0102,120 Hawley Ln,,,Trumbull,CT,US,66115347,-73.15,41.23,-300
d387414f-827a-49b1-8002-000ced29086e,16329,Albertsons-Oceanside #6733,73636-67161,760-729-3468,3450 Marron Rd,,,Oceanside,CA,US,920564672,-117.3,33.18,-480
c247cc83-e908-4046-a9e1-000de0f73ea5,1015467,SEC Lincoln & Yosemite - Lone Tree,27851-193845,(720) 467-4703,9998 Commons St.,,,Lone Tree,CO,US,80124,-104.88,39.54,-420
884bab44-49a6-44d0-90c5-000de92ea468,1011138,汇暻生活广场店,24754-238132,,黄浦区,汇暻生活广场,鲁班路615号102-103室,上海市,31,CN,,121.48,31.2,480
a8006b32-7cad-4826-a561-0010b00e348c,1005589,Gwanggyo sindae station,20506-206325,,"1119-1 sanghyun-dong, suji- gu",Yongin-si District,,Gyeonggi-do,41,KR,448-130,127.49,37.18,540
6fa04317-ac80-43a9-af0b-00120e4c3d12,15661,Sunvalley Mall - Concord,6505-55539,925-680-2571,1 Sunvalley Mall,D 115,Sunvalley Mall,Concord,CA,US,945205801,-122.06,37.97,-480
8f1b35f6-507f-4758-a912-0014da7415f9,13828,Hillsdale,2972-92906,201-664-2224,126 Broadway,,,Hillsdale,NJ,US,76422023,-74.04,41,-300
9fd529a1-a693-464e-a5e2-001982a76758,11331,Safeway-Lafayette #783,74208-24447,925-283-0228,3540 Mt. Diablo Blvd.,,,Lafayette,CA,US,945493814,-122.12,37.89,-480
72bac5da-933b-49ed-af6f-001a8e3ff58d,18748,VCU - Larrick Medical Campus,70304-121150,(804) 628-3357,641 N 8th St,,,Richmond,VA,US,232985072,-77.43,37.54,-300
ac94933f-7752-4bc7-8c8f-001bb1df879a,13082,Safeway-Yelm #1619,74271-51919,360-458-8830,1109 Yelm Ave E,,,Yelm,WA,US,985977683,-122.59,46.93,-480
8757bab6-fe43-467e-9180-001c9e95b725,17868,ORF B16,75931-105896,757-449-6235,2200 Norview Ave.,,,Norfolk,VA,US,235185816,-76.22,36.9,-300
6ff31080-173b-4997-be81-001ef824580a,1008694,Manchester - City Labs Nelson St,18169-188366,0161 272 9651,Nelson St,,,Manchester,ENG,GB,M13 9NQ,-2.23,53.46,0
41ad0629-a302-4e87-a78a-00201a50de29,88249,Gare St Lazare - Mezzanine,17015-175284,,14 Rue Interieure,,,Paris,J,FR,75008,2.33,48.88,60
6fa36806-2566-4c7f-a074-00220fbee7dc,1013413,嘉杰广场店,28083-249527,,虹口区,,四川北路1689号110、202室,上海市,31,CN,200080,121.48,31.26,480
a6dba431-a206-4330-8f9a-0022b79417ea,12472,Rancho Bernardo & Pomerado,6455-53699,858-487-1746,12469 Rancho Bernardo Road,,Rancho Bernardo Village,San Diego,CA,US,921282143,-117.06,33.02,-480
b7296b24-129a-45fd-9f30-00241423b568,1015006,Urban Center La Rioja,26301-244259,,Av. Lopez Mateos Sur S/N,Tlajomulco,,Guadalajara,JAL,MX,45645,-103.39,20.67,-360
c93998be-d31f-400c-b973-002448a03f02,4428,경기대점,31084-104658,02-758-8163,191,,,서울,11,KR,120-012,126.96,37.56,540
c00543de-9bd3-44ac-9cc4-0025e8647a62,13815,56th & Lafayette,2760-77380,317-328-0247,5550 Lafayette,,,Indianapolis,IN,US,462541697,-86.26,39.85,-300
17760922-5f02-49ef-afe3-002905454db4,11711,Alameda & Shelton,569-511,(818) 557-6604,1190 Alameda Avenue,Suite G-2,,Burbank,CA,US,915062806,-118.31,34.16,-480
528192bc-0659-4721-b300-002a36a5f52a,13867,"Valley & Grand, Walnut",6803-41819,909-598-4459,505-A Grand Avenue,,,Walnut,CA,US,917892144,-117.84,34.03,-480
cad497f2-51dd-4e82-a2ed-002c06eb90c1,10441,SR 535 & Vistana Centre,13643-107651,407-387-8700,13401 Blue Heron Beach Dr.,,,Orlando,FL,US,328216375,-81.5,28.37,-300
5829f0ad-36bc-4f07-8ca4-002d3a66d892,18937,Birmingham BPH AC Marriot Hotel,5192-148826,0121 643 9344,160 Wharfside Street,The Mailbox,,Birmingham,ENG,GB,B1 1RL,-1.91,52.48,0
24ed01f0-458e-47fb-81a9-003620b84f30,7036,Safeway - Colorado Springs #2816,79680-99500,,1920 S Nevada Ave,,,Colorado Springs,CO,US,809053407,-104.82,38.81,-420
83fa80a3-7b3f-4f20-a4c1-003676edf136,5883,The Mall Ngamwongwan-GF,3154-141691,844387428,"The Mall Ngamwongwan, No. 30/39-50","Moo 2, Ngamwongwan",,Bangkhen,10,TH,11000,100.54,13.86,420
55669ae3-6fc2-4813-98bc-003d6a2a70e3,9697,Vons-Henderson #1795,74763-98364,702-617-2505,2511 Anthem Village Dr,,,Henderson,NV,US,890525504,-115.1,35.98,-480
b15bfb5a-79a6-482a-8651-003e5a662bfd,1005607,Skyline Plaza,20029-197624,4.96974E+11,Europa-Allee 6,,,FRANKFURT AM MAIN,HE,DE,60327,8.65,50.11,60
d3519c06-7055-4821-b175-003f5097e7c6,5485,6750 Ayala Avenue,33201-11678,8123395,6750 Ayala Avenue,Ground Floor - Office Drive Side,,Makati City,41,PH,,121.03,14.55,480
a323cd80-a7ec-43ac-8ba3-003ff56ab5f2,8896,Super Target Caramel ST-1366,72652-46900,317-876-0809,10401 N Michigan Rd,,,Carmel,IN,US,460327939,-86.23,39.94,-300
3601eb41-adf6-42e4-9738-00422754ce23,1011437,80th & Second,818-227125,2124727972,245 East 80th St,,,New York,NY,US,10075,-73.95,40.77,-300
0c89239f-7390-41e7-8285-00457c6b0a5d,1012615,宁波书城店,27274-247106,,江东区,,宁波书城文化广场1幢1、2、 3、 4号1-1-3,宁波市,33,CN,315000,121.57,29.88,480
02019003-86d3-4615-9198-0046042f94a2,11258,Woodside & Gordon - Redwood City,6650-69220,650-299-0327,820 Woodside Road,,,Redwood City,CA,US,940613746,-122.22,37.47,-480
b27c9b67-9e1a-47bc-b65f-004df15d2885,10531,"Whittier & Passons, Pico Rivera",8799-95014,562-692-6327,9329 Whittier Blvd,,,Pico Rivera,CA,US,906602746,-118.08,34,-480
9aec17ca-8c44-41c0-92ee-004f003fd8ce,528,1241 Elgin Mills Road East,4905-110264,905-508-9956,1241 Elgin Mills Road East,Building C,,Richmond Hill,ON,CA,L4S 0B5,-79.4,43.9,-300
fdc7b1a0-3fcd-406a-8647-0052b09b5eac,18969,深圳龙岗广百店,8086-151210,0755-28909349,龙岗区,广百百货一楼1-01号铺,中心城建设路,深圳市,44,CN,518172,114.25,22.72,480
73fb5610-a10a-49fb-92ce-0057719bc295,113992,Wolgae Emart,19176-199455,,"333-1 Wolgae3dong, Nowongu, Seoul",,,Seoul,11,KR,139-050,127.06,37.63,540
92102cd0-23d9-4d11-9269-0059998d139c,10348,Crabapple Rd & Houze Rd,10238-100147,770-569-9451,12330 Crabapple  Rd,,,Alpharetta,GA,US,300046698,-84.36,34.08,-300
0c1bc540-9083-4dd7-99ac-005a2706c2b5,1005825,Kyoto Shijo Kadonooji,19718-200304,,8-2 Yamanouchi-ikejiricho Ukyo-ku,,,Kyoto,26,JP,615-0072,135.72,35,540
8e37a6ee-a70e-44b2-bb2c-005e981d96ed,16337,Sumter Landing,8949-94106,352-751-0843,966 Old Mill Run,,,The Villages,FL,US,321621675,-81.97,28.91,-300
06475ed0-0bd4-4aae-aebf-0060627c4934,1011309,宝乐汇店,25485-226668,,上海市,,牡丹江路1569号F1层F127铺位,上海市,31,CN,201900,121.49,31.4,480
9545201f-3c08-4279-966e-00639e3f3e54,1983,Freiburg Hauptbahnhof,41024-127966,4.97611E+11,BISMARCKALLEE 5,,FRAIBURG MAIN STATION,FREIBURG,BW,DE,79098,7.84,48,60
acfb583d-65ff-43c9-9187-0063a16f7912,1007836,Pingtung Ziyou,18658-187944,,"Ziyou Rd.,&Zhongshan Rd",Pingtung City District,,Pingtung County,PIF,TW,90065,120.49,22.67,480
07fbc197-fe0c-4c49-8205-006a5f177e2e,14054,Rolling Meadows-Golf & Algonquin,8609-86900,847-593-0012,1414 Golf Road,,,Rolling Meadows,IL,US,600084206,-88,42.05,-360
efd766a4-57ba-415c-8c56-006b8ee5a260,68199,Target San Clemente T-2730,16132-157726,9494568668,9990 Avenida Vista Hermosa,,,San Clemente,CA,US,92673,-117.6,33.46,-480
3cf68120-628b-4486-8e68-006cdc55722e,3644,Otemachi Conference Center,1824-138169,,1-3-1 Otemachi,,,Chiyoda-ku,13,JP,100-6801,139.76,35.69,-540
f11f8e08-18e7-4be5-ac3a-006ecea7105e,12317,El Camino & Lawrence - Santa Clara,5686-4550,408-296-5078,3605 El Camino Real,,,Santa Clara,CA,US,950512605,-122,37.35,-480
c76c7f98-32e0-4e2a-a879-006f9f7d62e1,13316,Almaden Center - San Jose,5262-731,(408) 323-9511,6471-90 Almaden Expressway,,,San Jose,CA,US,95120,-121.86,37.22,-480
b3389572-c112-4b0c-94a7-00716050e578,92695,Chungbuk Univ.,18207-188726,,"155-9, Sachang-dong, Heungdeok-gu",Cheongju-si District,,Chungcheongbuk-do,43,KR,361-831,127.46,36.63,540
88cd5d62-0e9d-4eb4-8221-0073b03621f9,14726,"Main & Chestnut, Ventura",6826-40766,805-648-2489,607 E. Main Street,A,,Ventura,CA,US,930012847,-119.29,34.28,-480
177d1198-cf12-4503-acf6-0076b97d4f50,5542,Almada,1966-135524,,Estrada do Caminho Municipal 1011,Vale de Mourelos,,Almada,11,PT,2810-354,-9.16,38.66,0
79e86d99-d5c3-47ac-a780-007938c561c8,4719,جمعية سلوى التعاونية,34334-97955,25648813,شارع غانم الحريص,,قطعة 5,مدينة الكويت,HA,KW,,48.08,29.3,180
2be23e30-c793-4e12-b936-0079eae8dcfe,14062,Randalls-Austin #2477,74650-95639,512-327-1881,3300 Bee Caves Rd,,,Austin,TX,US,787466600,-97.8,30.28,-360
e98ca3f9-f08c-46a7-a409-007e4536a493,91748,Liberte Place,17868-186924,27962255,"Shop No.101, 1st Floor, Liberte Place, 8","33 Lai Chi Kok Road, Kowloon",,Hong Kong,91,CN,,114.15,22.33,480
51fdc41a-14ee-48bc-ab39-007e4ae101ee,1011819,Pantai Medical Centre (Closed),31233-244104,03-22015008,"8, Jalan Bukit Pantai",Part of Ground Floor,,Kuala Lumpur,14,MY,59100,101.67,3.12,480
0cecb6a1-f2aa-491a-ac05-007e789540f6,1011740,Kaiser Permanente @ Baldwin Park,25255-186787,6269600846,1011 Baldwin Park Blvd.,,,Baldwin Park,CA,US,91706,-117.99,34.06,-480
b987d16e-0f7d-4ac3-a5dc-007f4c625465,13291,Albertsons-Blythe #6587,73575-80150,760-922-4099,840 E Hobson Way,,,Blythe,CA,US,922251800,-114.59,33.61,-480
3e462cd1-1ff7-4a69-adc6-0084b4782969,10611,Bidwell & Hwy 50,14209-108161,916-817-2461,195 Placerville Road,130,,Folsom,CA,US,956306319,-121.11,38.65,-480
0456fa34-207b-44b0-9a26-0087c1545419,4167,Hanshin Mikage Classe,32403-137528,,3-2-1 Mikagenakamachi Higashinadaku,,,Kobe,28,JP,658-0054,135.26,34.72,540
94c3a25a-5339-4d2d-af9d-0089d36f4c41,13684,Harmony & Timberline-Fort Collins,6910-79462,970-229-0680,4609 S Timberline Rd,Unit A101,,Fort Collins,CO,US,805283170,-105.04,40.52,-420
4d32da0c-526d-4563-87d3-0089f68286b8,1006240,Stockport Stn SSPEMEA Plt 12,21342-211126,,"Stockport Station, Station Road",Edgeley,,Stockport,ENG,GB,SK3 9HZ,-2.16,53.4,0
62be6aa5-849f-4738-ade5-008b2f08fba7,1007233,福州群升东百分店,20209-204092,,台江区,群升国际二期E地块2号楼第一层的1102单元,八一七路760号,福州市,35,CN,350000,119.3,26.06,480
232b67d7-b41a-4d66-b406-008becf4364e,2046,Alexa Shopping Centre,40971-108228,4.93028E+11,GRUNERSTRASSE 20,,ALEXA,BERLIN,BE,DE,10719,13.42,52.52,60
d529e479-e8fd-40ba-b948-008d3fad252f,8676,Arizona Mills,5468-1417,(480) 897-4804,5000 Arizona Mills Circle,Suite #391,,Tempe,AZ,US,85282,-111.96,33.38,-420
bcba5f0c-d5d2-4f51-8cc0-008d8b68be42,1013908,D'Prima Melawai,29077-252348,,Jalan Melawai,,,Jakarta,JW,ID,ID-JW,106.48,-6.14,420
09459e08-96a7-4428-b4f4-008e14b9e067,1015504,Flamingo & Arville,2776-252268,7022207639,4507 Flamingo Rd,,,Las Vegas,NV,US,89103,-115.2,36.12,-480
ba22ec01-eb6f-4c4e-aa48-00950afb8709,1013534,中港汇店,27243-246386,,普陀区,中港汇大厦,长寿路828，846号,上海市,31,CN,200042,121.43,31.24,480
4d20a88c-6989-412e-84b4-0096a42d7e20,667,265 Wharncliffe Rd N,4955-129648,519-438-8677,265 Wharncliffe Rd North,,,London,ON,CA,N6H 2C1,-81.26,42.99,-300
fd9bdd39-b809-46df-a773-009c524bb1e2,2535,Reading - Sainsbury's Calcot,12178-20020,1189422620,Bath Road,Starbucks c/o Sainsbury's,,Reading,ENG,GB,RG31 7SA,-1.06,51.44,0
3bb27cd2-46b9-4016-87f5-00a11fbb1e4c,14196,Independence Blvd.,7911-79202,757-499-7881,465 INVESTORS PLACE,,,Virginia Beach,VA,US,234521143,-76.13,36.83,-300
f4ae2aeb-b03f-45f9-843a-00a5d108f078,16306,Monument & McCormick,8537-52519,904-996-3664,2771 Monument Road,41,,Jacksonville,FL,US,322255549,-81.5,30.36,-300
5bda57bb-bfcb-4891-a6ec-00a967495db2,7220,CMH - Columbus B Concourse,75862-97996,614-5543987,4600 International Gateway,,,Columbus,OH,US,432191765,-82.89,40,-300
d689e0ea-5f9d-4a6a-8f4c-00abced9cbab,1014116,南京紫荆广场店,28962-251966,,江苏省南京市,,雨花区雨花东路158号217、220-222铺位,南京市,32,CN,210000,118.79,31.99,480
3beb1aa2-e566-45cb-80b2-00adaeb5d5e4,1005346,The Bow,18193-180784,403-294-0905,500 Centre Street,100,,Calgary,AB,CA,T2G 0E3,-114.06,51.05,-420
d5abf2f4-189d-4554-97a9-00af5b969831,12927,Corson & Michigan - Seattle,3408-82540,206-762-4671,5963 Corson Avenue South,"Building A, Unit 184",,Seattle,WA,US,981082619,-122.32,47.55,-480
7f209200-2838-416d-84a9-00b1bde3ab10,13297,Albertsons 3531 @ Lake Oswego,73593-24389,503-635-3429,16199 Boones Ferry Rd.,,,Lake Oswego,OR,US,970354201,-122.72,45.41,-480
40a1151a-57b2-43b3-a9c6-00b3045f803c,13996,Safeway-Kenmore #3500,74413-87984,425-487-2001,6850 NE Bothell Way,,,Kenmore,WA,US,980282404,-122.25,47.76,-480
a19d2c8f-01aa-488a-b698-00b67b237bd1,7430,Tioga Town Center,10590-97195,352-331-9778,12921 SW 1st Road,Suite 111,,Newberry,FL,US,326695709,-82.48,29.66,-300
4e0faca7-88b0-4a3f-a223-00b780006704,1007178,Highland & Willoughby,22601-215486,323-493-1868,859 N. Highland Avenue,,,Los Angeles,CA,US,90038,-118.34,34.09,-480
509b1355-9cb2-49ac-96fb-00b84a932fc4,10898,US 31 & Alto,13973-108479,765-864-0616,512 East Alto Rd.,,Southway Plaza,Kokomo,IN,US,469024311,-86.13,40.44,-300
a53fed7d-740c-45b4-84a3-00bcff90a93e,9143,7700 Maple Street,6285-1709,504-864-0411,7700 Maple Street,,Earth & Fire,New Orleans,LA,US,701183959,-90.13,29.94,-360
b2b2c96a-36d8-4fae-bccb-00bffa69baa2,89071,宁波钱湖天地店,17146-175704,0574-88016371,鄞州区,钱湖天地一楼,钱湖北路399号,宁波市,33,CN,315000,121.57,29.83,480
7824b201-c690-4347-9bc2-00c0c5a4e1e7,1005230,湖州浙北中心店,19335-200704,0572-2089889,吴兴区,湖州浙北中心,湖州市公园路168号（公园路与南街交叉口）,湖州市,33,CN,313000,120.1,30.87,480
08dc7af3-d268-480a-a5a2-00c0eaee347d,1015447,Family Fare 3784 Omaha,48135-261124,402-334-1415,14444 W. CENTER RD.,,,OMAHA,NE,US,68144,-96.14,41.23,-360
59a5525a-0b1d-4c7b-b651-00c2bfb3078c,11802,15th & K,7676-20500,2029620975,"1455 K St., NW",,,Washington,DC,US,200054904,-77.03,38.9,-300
44724c9b-e3b7-460c-8eb6-00c341d66cba,113945,Q Square-Taipei-4F,19131-198889,,"4F, No.1, Sec. 1, Chengde Rd.",Datong Dist,,Taipei City,TPE,TW,103,121.52,25.05,480
23691893-722a-4326-a6a6-00c69c2b144e,35528,50 Connaught Road Central,15593-163265,28016598,"Shop B, Ground Floor","50 Connaught Central, Central, HK",,Hong Kong,91,CN,,114.16,22.29,480
f03b7616-9169-495e-a82a-00c9802b0941,1012519,Teavana - Westside Pavilion,28388-250253,310-474-0127,10800 West Pico Blvd.,Spc. #139,Westside Pavilion,Los Angeles,CA,US,90064,-118.43,34.04,-480
0c32a179-60fe-48e1-9712-00cbb0d111b6,18661,Safeway-Eugene #4513,70366-136369,541-342-4067,350 E 40th Ave,,,Eugene,OR,US,974053404,-123.09,44.01,-480
77acbc6c-52ee-47d0-bcd1-00cf27ccb885,18180,Mount Airy Shopping Center,11965-105196,301-829-6391,400 Ridgeville Blvd.,,Mount Airy Shopping Center,Mount Airy,MD,US,217715216,-77.16,39.36,-300
2a1a845c-c040-407c-b5e1-00cfc9a149de,17351,Renaissance Long Beach - Gift Shop,75948-104482,562-437-5900,111 east ocean Boulevard,,,Long Beach,CA,US,908024794,-118.19,33.77,-480
42a0c11c-4c9c-46cc-ae05-00d00a961bbd,3362,Cambridge City Square- Ground Floor,32780-136394,061-457-7173,"JL Zainul Arifin, Medan Baru",Ground Floor,,Medan,SU,ID,20152,98.67,3.58,420
98a3a497-617f-4dc2-aacc-00d2d2482dc2,1361,Mountain Side Village,4462-86400,403-609-9552,1240 Railway Avenue,112,,Canmore,AB,CA,T1W 1P4,-115.36,51.09,-420
e5c10615-7332-4641-8020-00d2f8902086,10655,Nassau & Fulton,14318-119964,212-962-0439,130 Fulton Street,,,New York,NY,US,100382504,-74.01,40.71,-300
b3088ba3-05a0-456d-bf0b-00d716d7535c,10235,Chino Hills Pkwy & Pipeline,10884-102721,909-606-0523,4200 Chino Hills Parkway,145,Chino Hills Marketplace,Chino Hills,CA,US,917093776,-117.71,33.98,-480
04a09ae2-5edc-401f-94fa-00ddfd70b99e,113529,Palembang Indah Mal,15561-159207,,Jalan Letnan Kolonel Iskandar,,,Palembang,SS,ID,40115,104.76,-2.98,420
275f911c-96c6-4dcc-baeb-00e34f99f9c7,68947,Bujeon station,16667-174288,,"573-7, Bujeon-Dong, Busanjin-Gu",1/2F,Seomyeon Hotel Complex,Busan,26,KR,614-030,129.06,35.16,540
a730f32e-015c-41c3-9d42-00e892ea014e,1014083,Clinica Tabancura,26482-228786,,Av. Tabancura 1185,,,Santiago,RM,CL,,-70.54,-33.38,-180
24a9c8f1-da93-46de-b860-00eba31dda4d,1013226,Ralphs Palm Springs #181,25981-182687,760-200-0272,1733 E Palm Canyon Dr,,,Palm Springs,CA,US,92264,-116.53,33.8,-480
a21192cb-73ac-4e2e-90a0-00ebc73d8e0a,20040,Church & Gerrard,27133-154144,416 593 8487,66 Gerrard Street East,,,Toronto,ON,CA,M5B 1G3,-79.38,43.66,-300
d7adeea5-2230-4af1-b7bd-00eef16f66af,68733,Duryu Station,16326-170446,,"469-1, Naedang-dong, Seo-gu",1F-2F,DBS Tower,Daegu,27,KR,703-060,128.56,35.86,540
25391c29-f001-4d14-9287-00ef406827e7,6096,Kang Ning,33365-50899,886 02 2633 162,"No. 72, Sec. 3, Kang-Ning Rd",1st Floor,,Taipei City,TPE,TW,114,121.61,25.07,480
afc0eeb3-2d4d-427e-afc5-00f03e902273,1014109,Luxembourg Airport (landside),28144-249586,,Aéroport de Luxembourg lux-airport,,,Luxembourg-Findel,L,LU,L-2016,6.21,49.63,60
177ec7a7-6df3-4caf-93f0-00f1086fdbdf,1014438,Universal Studios Hollywood - Upper,27774-238927,(818) 622-6785,100 Universal City Plaza,,,Universal City,CA,US,91608,-118.36,34.14,-480
e295ea17-5eb2-40e2-9898-00f1350ddf1e,11807,Mamaroneck,7520-3047,914-698-4818,1030 West Boston Post Rd,,,Mamaroneck,NY,US,105433328,-73.74,40.94,-300
3772e1a1-d724-4d28-9d5b-00f2aba83089,10431,168th & Washington- Thornton,9946-98432,303-451-0324,16769 N Washington St,,Lakeridge,Thornton,CO,US,800238969,-104.98,40,-420
7bd368f6-9e06-45b2-840b-00f5aa155a39,18142,El Camino & McLellan,10225-98587,650-952-0740,100 McLellan Dr,1075,Transit Village,South San Francisco,CA,US,940807529,-122.45,37.66,-480
34225796-1356-4d53-b7bf-00f657f9a158,12401,Safeway-Severna Park #1351,74152-26768,410-647-9487,540 Benfield Rd.,,,Severna Park,MD,US,211462542,-76.58,39.08,-300
592864ec-1a08-42e5-a057-00fb8a4769de,8638,Day Creek & Foothill,9509-96446,909-463-0423,8025 Day Creek Blvd.,,Victoria Gardens,Rancho Cucamonga,CA,US,917398029,-117.54,34.11,-480
9ac9d718-b1b1-4e7a-88c7-00fcf745f7c9,5140,Queensbay Mall,31408-107042,04-6411645,"100, Persiaran Bayan Indah","GF-36, Ground Floor",,Bayan Lepas,7,MY,11900,100.31,5.33,480
ae8d0e1e-8b47-4fbc-98fe-00fd016f3b03,14454,Target Foothill Ranch T-913,76347-88962,714-454-2360,26792 Portola Pkwy,,,Foothill Ranch,CA,US,926101712,-117.67,33.69,-480
8c14dab8-7d3d-4fc9-bc55-00fe36dd6277,113305,Suita Yamada,18459-178924,,2-17-5 Yamadahigashi,,,Suita,27,JP,565-0821,135.53,34.8,540
4c454fc7-7cc0-476b-b877-00fedce9a68c,116419,武汉首义汇店,19484-197485,027-88392979,武昌区,南国首义汇一层 85-88室,张之洞路151号,武汉市,42,CN,430000,114.3,30.53,480
4ccf1e08-9dc0-4033-8d42-0100b9543b34,91888,Target Chicago T-2781,15963-166069,312-279-3340,1101 W Jackson Blvd,,,Chicago,IL,US,606072905,-87.65,41.88,-360
bcac7750-783a-4bac-ac03-010858e06c7b,8563,Fred Meyer - Peninsula #255,79336-101746,503-240-2700,6850 North Lombard,,,Portland,OR,US,972036247,-122.74,45.59,-480
cb2dc483-1cc5-4bbf-bcab-010a9525af99,15760,Castro Valley & Lake Chabot,6855-85348,510-888-0420,2720 Castro Valley Blvd,,,Castro Valley,CA,US,945465412,-122.09,37.69,-480
92cf9b99-f870-425c-84d4-010b8dcbb83f,1008638,827 Arthur Godfrey Road,21216-183784,7865660341,827 West 41st Street,Unit #2,,Miami Beach,FL,US,33140,-80.13,25.81,-300
cc0f9710-aad8-4baa-86de-0114aecba8ba,18015,Canadaigua,13353-105357,585-394-6970,10 Muar St.,,Parkway Plaza,Canandaigua,NY,US,144242321,-77.26,42.88,-300
8244e3af-9732-4afc-9fa2-0117d5a39da0,3659,Shinjuku Nomura Bldg.,3683-143386,,1-26-2 Nishishinjuku,,,Shinjuku-ku,13,JP,163-0590,139.7,35.69,540
b4c92ffa-0f20-4609-b7e1-0118b1b4de24,11625,Ocean Park & 29th,5493-1376,(310) 396-9995,2901 Ocean Park Blvd.,,,Santa Monica,CA,US,904052919,-118.45,34.02,-480
2412bbae-7f41-45a9-9d35-011a0b74ab3e,5693,Marina Square II,1343-139910,,6 Raffles Boulevard,#03-217/218 Marina Square,,Singapore,1,SG,39594,103.86,1.29,420
3560de8b-ed90-43f4-9b73-011d25aa20a8,1007866,Exchange Square 3,22733-224529,25562335,"Office Lobby, G/F Exchange Square",Central,,Hong Kong,91,CN,,114.16,22.28,480
f26db640-3c3b-4f11-91e4-011f5d78209e,10138,Target Biddeford T-2166,76681-97524,207-284-2510,585 Alfred Rd,,,Biddeford,ME,US,4005,-70.51,43.47,-300
fa8ae53e-8c93-418e-b30f-01238a91861e,1007098,I-90 and E. North - Rapid City,21355-210584,6053413101,1734 Eglin Street,,,Rapid City,SD,US,57701,-103.18,44.1,-420
87bd3a17-e658-4071-82b3-0125a20c9061,1005408,JR Nagoya,19122-193564,,1-3-16 Taiko Nakamura-ku,,,Nagoya,23,JP,453-0801,136.88,35.17,540
73726a25-f25c-495a-b8b0-0126148fc1eb,3544,Fuchu Kururu,30583-98076,,1-50 Miyamachi,,,Fuchu,13,JP,183-0023,139.48,35.67,540
c4b71131-8938-454f-8040-0128e5c91c76,92685,Broadway & Lincoln,17403-162764,310-395-1051,1447 Lincoln Blvd.,104,,Santa Monica,CA,US,90401,-118.49,34.02,-480
dce5119e-3e9a-40a7-b954-0129e158ead2,1017101,Aysekadin,49973-272044,,Semsettin Gunaltay Cad. NO.108,Kozyatagi Kadikoy,,Istanbul,34,TR,34742,29.09,40.97,120
af0fe53a-975c-4455-9993-0131c714b6aa,1012065,成都海洋中心店,27477-246952,,高新区,,天府三街99号海洋中心一层附6号商铺,成都市,51,CN,610000,104.07,30.55,480
e7be7265-4f5d-4b16-ad84-0132621bcaf5,1011778,Jean Jaures,26464-238685,,Jean Jaures 1015,,,Buenos Aires,C,AR,C1425ESA,-58.41,-34.6,-180
271e40ac-0d5a-432a-a6df-01363c071a9b,383,Broadway Ave & 10 Street E,4639-99653,306-651-7211,737 Broadway Avenue,,,Saskatoon,SK,CA,S7N 1B3,-106.66,52.12,-360
49887a16-2c84-4715-bbda-013897e4cd96,8089,Memorial & Mastin Lake,10127-99686,256-851-1463,3421 Memorial Drive NW,,,Huntsville,AL,US,358015317,-86.59,34.77,-360
097a701f-2310-42e1-8f06-013bf4a8f1b4,16682,"Shields & Hwy 41, Fresno",2943-84581,559-248-0237,2035 E. Shields,,Manchester Center,Fresno,CA,US,937265428,-119.79,36.78,-480
d415138b-34b0-492d-8f0c-013c112b1230,1515,Mirador del Alto,1469-121808,,"Av. Kennedy 9001, Local 3225","Mall Alto Las Condes, Las Condes",,Santiago,RM,CL,59433,-70.55,-33.39,-480
62e76750-54ed-439c-9197-013d3e7e7442,11196,49th & 8th,7670-36979,212 307 1421,825 Eighth Avenue,W-9,,New York,NY,US,100197416,-73.99,40.76,-300
41044af3-b52b-4f8f-98b3-013d4f1dcd2f,1212,James Bay Square - Simcoe St,4545-95047,250-361-4884,425 Simcoe Street,,James Bay Square,Victoria,BC,CA,V8V 4T3,-123.38,48.42,-480
7a73a759-4782-475b-9aaa-013d7e08d886,1010433,Kroger Findlay #327,24886-237519,419-422-1163,1996 Tiffin Avenue,,,Findlay,OH,US,45840,-83.61,41.06,-300
8df9c745-7422-4450-9f63-013e53814c6a,1012562,Yangju Goeup,26387-238644,,"653-1, Gwangsa-dong",,,Yangju-si,41,KR,482-030,127.08,37.79,540
d6edef5e-38d5-4a07-9dc1-013e92e2a514,889,Dundas & Roncesvalles,4720-103563,416-538-0211,2201 Dundas Street West,,,Toronto,ON,CA,M6R 1X5,-79.45,43.65,-300
84fbf0e4-e030-4021-ace9-013e9dc27b30,504,Genco Place,4773-103661,403 263-0033,396 - 11th Avenue SW,,Genco Place,Calgary,AB,CA,T2R 0C5,-114.07,51.04,-420
9747e54a-9f7e-4e81-aa36-01431d675c5a,1014737,Outlets of Little Rock,28984-247347,5015806716,11201 Bass Pro Parkway,138,,Little Rock,AR,US,72209,-92.41,34.66,-360
3a4f11bc-83f0-4103-8033-014348f5e096,9481,Boscell & Auto Mall Pkwy,9259-96186,510-657-7249,5605 Automall Parkway,,,Fremont,CA,US,945383133,-121.98,37.5,-480
a89849ac-1e32-4b76-a21d-0144329db9a3,7432,Forest Hill Blvd & Wellington Trace,10591-101305,561-333-2049,12840 West Forest Hills Blvd,,,Wellington,FL,US,334144708,-80.25,26.67,-300
d6781da7-1e4b-4815-9211-0145a2ca24b4,18158,I 55 & William,13714-105548,573-339-0685,188 Vantage Dr.,Suite 100,,Cape Girardeau,MO,US,637014915,-89.58,37.3,-360
b3b4e425-9fe8-4df3-bad9-0146a2eb8409,2923,Clapham - St. John's Road,12929-137795,2079244670,37-39 St. John's Road,,,London,ENG,GB,SW11 1QN,-0.17,51.46,0
007ecfe9-5011-4beb-bce5-01479c57125a,401,Safeway-Surrey #92,74729-97793,604-594-7341,7450 120 St,,,Surrey,BC,CA,V3W 3M9,-122.89,49.14,-480
4fd3ed5a-efa4-4a20-b11d-0148c42cb029,1006159,Target Vadnais Heights T-751,20341-204767,651-483-9637,975 County Rd E,,,Vadnais Heights,MN,US,55127,-93.06,45.05,-360
df5f7a92-bf59-4481-8b2c-014a09435e1e,1005966,唐山银泰店,20941-208644,0315-3735112,路南区,综合楼首层F1-58单元,新华西道2号,唐山市,13,CN,63004,118.18,39.63,480
ce0af2cd-e30d-4de6-b6be-014cbe3d744c,1012409,Teavana - Calgary Eaton Centre,28225-250192,403-261-2027,324 8th Avenue SW,Unit C256,,Calgary,AB,CA,T2P 2Z2,-114.07,51.05,-420
7902bae1-4fd2-4799-b947-014db3e437e5,2230,Castellana 70,30711-102224,91.275.96.01/2,Paseo de la Castellana 70,,,Madrid,MD,ES,28046,-3.69,40.44,60
d16d7af6-38d8-437f-8c1c-01504fc17c79,11539,Amyclae,2769-75140,410-588-5661,1200 Agora Drive,,,Bel Air,MD,US,210146864,-76.32,39.55,-300
e79c6607-3305-4a38-9a5e-0152cd42e0ad,1283,435 Stone Road W,4288-1222,(519) 822-5733,435 Stone Road W,Unit F-6 - Main Level,Stone Road Mall,Guelph,ON,CA,N1G 1X6,-80.24,43.52,-300
dbc7749d-ac96-4116-ad0b-015705431abb,693,111 St & Ellerslie Rd,4931-125724,780 435 3081,961 James Mowatt Tr,#106,,Edmonton,AB,CA,T6W 1S4,-113.51,53.42,-420
5974b558-4e4c-45eb-9ded-0158d7aefd05,1011202,松江新理想广场店,24722-238648,,松江区,新理想广场,荣乐西路790号1F-14,上海市,31,CN,,121.2,31.02,480
413e6bab-418b-454c-be58-015b114ad4c7,1013387,Nanba Walk,27221-246964,,1 Sennichimae Chuo-ku,,,Osaka,27,JP,542-0074,135.5,34.67,540
6c0616b1-271c-40cc-bdf5-015b7514f4e8,92697,Xi Zi Bay,18270-189544,,"No.14, Shaochuan St.",Gushan Dist,,Kaohsiung City,KHH,TW,80441,120.27,22.62,480
bf276ebf-d34f-4eaa-bfaa-015c060f6c15,20130,Village Nottingham,15211-157710,1159464422,"Brailsford Way, Chilwell",,,Nottingham,ENG,GB,NG9 6DL,-1.24,52.9,0
f52cdfc1-a84b-4871-b48f-015d118f83a1,1006656,深圳龙岗万科店,20988-203707,0755-89253172,龙岗区,万科天誉广场L2-48商铺,龙城街道中心城龙翔大道7188号,深圳市,44,CN,518000,114.24,22.72,480
8f7fcedb-ebd8-4adb-b04a-015f0bd67bc0,1066,Brock Plaza Hotel - Retail Strip,75571-68502,9053744446,5685 Falls Ave,,,Niagara Falls,ON,CA,L2E 6W7,-79.07,43.09,-300
a7bd821d-8596-4f9a-9396-0160a5ae1d66,1015449,Brussels Schuman Metro Station,48462-260556,,"Rue de la Loi, Rond-point Robert Schuman",,,Brussels,BE,BE,1000,4.38,50.84,60
6cd35cd7-ac8f-4846-8666-01647f216c97,1008553,浦东机场交通中心店,22929-225924,,上海浦东,浦东,国际机场交通中心地铁2号线西侧廊道靠中步行道段A标段01号商铺,上海市,31,CN,200001,121.81,31.15,480
d27c3960-aa79-4fd9-a593-016951821169,1006363,Songdo Canal Walk,22057-217468,,"19-1, Songdo-dong, Yeonsu-gu",,,Incheon,28,KR,406-840,126.64,37.4,540
094807bb-d2f1-480c-96c2-016b971ca225,1008668,Bower Place,23362-229225,4033099315,4900 Molly Banister Drive,212,,Red Deer,AB,CA,T4R 1N9,-113.81,52.24,-420
db87cc0b-6cb5-4040-8a46-016cbfe34f70,12504,2344 Eastlake,3448-84572,206-324-5144,2344 Eastlake Ave E,,,Seattle,WA,US,981023306,-122.33,47.64,-480
c3ec671e-b056-4fda-b480-017288d6e163,7634,SuperTarget - Apple Valley T-2260,76775-108569,760-240-7654,20288 Hwy 18,,,Apple Valley,CA,US,923072937,-117.22,34.53,-480
a24c8cb2-3118-4ae6-8e65-017ade429517,1006028,南京花园城店,19959-192345,025-85500857,栖霞区,花园城,中山门大街699号,南京市,32,CN,210049,118.89,32.05,480
788a8454-c9a9-4a24-a137-017bb004fee4,14480,Broward Health Medical Center,9642-95733,954-764-2705,1600 South Andrews Ave,,,Fort Lauderdale,FL,US,333162510,-80.14,26.1,-300
2bafbb6a-fd07-490a-9631-017d49978dc6,8947,Spring and Varick,7626-33939,646-230-9816,150 Varick Street,,,New York,NY,US,100131218,-74.01,40.73,-300
b712117d-af51-4933-8cfa-017d50b66d4a,5782,Central World Plaza-Third Floor,31108-104468,844387461,"4, 4/1 & 4/2, Shop A305, 3rd Fl Zone A",Central World Plaza Ratchadamri Rd,,Pathumwan,10,TH,10330,100.54,13.75,420
44b81271-4a21-4e13-8a40-017fe78097b3,1041,Pacific Blvd & Davie/Concord,4359-1858,604-609-7717,125 Davie Street,,,Vancouver,BC,CA,V6Z 2Y1,-123.12,49.27,-480
28fcb5d0-91ab-4867-a146-0183aaa8e036,10272,19th & Telephone,10753-102015,(405)793-7460,620 SW 19th Street,,,Moore,OK,US,731605439,-97.5,35.32,-360
6e322d96-d8d7-4bb3-81dc-018646050e09,18698,Safeway-Castlegar #196,5031-147306,250-365-7771,1721 Columbia Ave,,,Castlegar,BC,CA,V1N 2W6,-117.66,49.3,-480
dfbe5229-1f49-454b-9268-018a9c397555,1012127,Cambridge - Christs Lane,27629-248273,,Unit 4,6 Christs Lane,,Cambridge,ENG,GB,CB1 1NP,0.12,52.21,0
081408f2-084b-4f08-91f9-018bc7a65d09,18919,Hermes Park,1459-137880,,Tsarigradsko Blvd,,,Sofia,23,BG,,23.43,42.64,120
fc81c84b-6baf-4f06-93ec-018e1ef65664,16711,Metropolitan Park,104-58,(206) 340-9068,1730 Minor Avenue,Suite 102,,Seattle,WA,US,981011448,-122.33,47.62,-480
a5b94d82-2c1e-4b02-ac54-018fd13945fc,1011942,BJV Airport Air Side,27327-247345,,Ekinanbari Koyu Bodrum Milas Havalimani,48670 No ZK-010B Milas,,Mugla,48,TR,48670,27.66,37.25,120
ce43ca7f-d4e0-47b1-bb32-0190ae6d268f,1015175,Romford - Liberty Shopping Centre,47773-259782,01708 765789,Liberty Shopping Centre,,,Romford,ENG,GB,RM1 3RL,0.18,51.58,0
7c42dadb-fb14-4d17-9977-0190ed691718,4007,Kashiwa Takashimaya Station Mall,30151-26829,0471-48-2412,1-1 Suehirocho,,,Kashiwa,12,JP,277-0842,139.97,35.86,540
b12cc9f7-e17e-4d2e-b74d-0193ccbe3f2c,1355,Embassy Suites Niagara Falls,75633-86381,,6700 Fallsview Blvd,,,Niagara Falls,ON,CA,L2G 3W6,-79.08,43.08,-300
752f1ddb-c9a1-4fe3-a229-01991ee13d38,1007595,北京西站第一咖啡店,22901-225145,,丰台区,北京西站通廊7-1号,莲花池路18号,北京市,11,CN,100073,116.32,39.9,480
1898b43e-9b70-4295-8c38-019921ff17a8,17929,Camino Capistrano & Ortega Hwy,14023-108045,(949) 487-0065,31760 Camino Capistrano,,,San Juan Capistrano,CA,US,926753246,-117.66,33.5,-480
53dfe191-71b9-4a18-b8b6-019dbfe33a17,15390,Wellington Green,8432-19319,561-753-0788,10580 Forest Hill Blvd.,,Shoppes of Wellington Green,Wellington,FL,US,33414,-80.21,26.65,-300
2e2d160a-1b70-4b19-af50-019e93a23fd9,1567,红房子店,35061-98966,021-62717217,卢湾区,红房子,陕西南路37号,上海市,31,CN,200040,121.46,31.22,480
7c5a81f2-fe96-4bc2-a854-01a6287cb18d,14065,23 Mile Rd & M-53,2873-91720,586-726-5461,12129 23 Mile Rd,,,Utica,MI,US,483152615,-83.01,42.67,-300
48285954-13c4-43fc-a364-01a8dd769bd2,18137,Hwy 6 & 25 Rd - Grand Junction,11477-104016,970-241-0176,2504 Hwy 6 & 50,100,,Grand Junction,CO,US,815057170,-108.59,39.08,-420
aa3eb219-7dcb-46e7-880d-01aa7db020f5,7266,Safeway - Parker #2075,74999-101170,928-669-2243,121 W Riverside Rd,,,Parker,AZ,US,853445220,-114.28,34.15,-420
340562ab-746e-4557-8544-01ab03b99e8a,19097,Brixton Station,7013-150064,2072747979,"Shop 5, Brixton Underground Station",,Brixton Underground Station,London,ENG,GB,SW9,-0.11,51.46,0
893542c6-9a49-4840-87ae-01ac159e14d3,15128,Safeway - Lakewood #344,74295-65079,303-232-4989,9160 West Colfax Avenue,,,Lakewood,CO,US,802154024,-105.1,39.74,-420
e1142879-2773-4a47-b01d-01ae8b92d4af,10044,Fayette Mall,10829-102266,859-271-1157,3401 Nicholasville Road,PK7,Fayette Mall,Lexington,KY,US,405033611,-84.53,37.99,-300
931f3bac-3a0a-415e-990d-01b353a22081,6507,Target Romeoville T-2293,76848-111384,815-524-9801,349 S Weber Rd,,,Romeoville,IL,US,604466530,-88.12,41.61,-360
a45dab1e-9488-465f-933f-01b6fea4e8b6,68160,Michigan State University-Wells Hal,16274-156744,517-884-6750,114 Wells Hall,,,East Lansing,MI,US,488241027,-84.48,42.73,-300
2125dcdc-08a9-430a-a39d-01b91bffcc67,11365,Albertsons-Carson #6159,73524-23311,310-513-1900,200 E Sepulveda,,,Carson,CA,US,907456323,-118.27,33.81,-480
f73ca5c5-2aca-406c-b599-01bce55536ff,16061,N. Miller & N. Mission,391-217,(509) 665-8802,1134 N. Miller Street,Space A,,Wenatchee,WA,US,988011541,-120.33,47.44,-480
5ed0d00e-8485-4e14-a9d2-01c09a245b6c,17712,"SR 48 & SR 37, Bloomington",2670-71240,812-323-8740,284 N. Jacob Drive,,Whitehall Crossing,Bloomington,IN,US,474044892,-86.57,39.17,-300
ae8793a6-7c0a-4c5b-b1b8-01c12cdd6504,10300,Walnut & 46th,10422-100877,479-936-8250,4520 W Walnut,,,Rogers,AR,US,72756,-94.18,36.33,-360
99a1042e-0bd3-4648-9f2d-01c2587bf697,14244,"Manchester, Spencer Street",6999-91101,860-647-1523,185 Spencer St,,,Manchester,CT,US,60404617,-72.57,41.77,-300
255ee44a-33dd-4390-9e62-01c9a8e1a420,1013824,Steamboat-Hwy 40 and Anglers,2939-244628,9708711303,225 Anglers Drive,,,Steamboat Springs,CO,US,80487,-106.83,40.47,-420
b8d53c7b-2d95-43fb-88df-01ca051a7739,1007591,Kroger - Fort Wayne #972,22895-223904,260-637-4504,601 East DuPont Road,,,Fort Wayne,IN,US,468252055,-85.14,41.18,-300
cecfadab-e936-4ec2-bb03-01d36d3296ac,8283,Wade Hampton Blvd & Brannon Dr,9727-97683,864-879-6565,1378 Wade Hampton Blvd,,,Greer,SC,US,296516243,-82.27,34.94,-300
b5725455-baeb-4c4b-a7fb-01d59dc8f0e7,1013902,TSUTAYA Surugawan Numazu Service Ar,28477-250732,,998-27 Negoya,,,Numazu,22,JP,410-0309,138.81,35.15,540
944d6d30-6d4e-4766-96aa-01d5a4e42917,6207,Feng Yuan,33428-94854,,"No. 2, Fusing Rd., Fongyuan Dist.",1F,,Taichung City,TXG,TW,,120.72,24.25,480
2ef5769c-1cf5-472a-8287-01d6895c4a63,13124,Vons-La Crescenta #2598,74599-87828,8186581018,3233 Foothill Blvd,,,La Crescenta,CA,US,912142636,-118.25,34.23,-480
4c49303d-e424-43c0-88ce-01d7792a9bfb,11906,Silver Creek & Beaumont Canyon,5854-25187,(408) 274-1055,5651 Silver Creek Valley Rd.,,Canyon Creek Plaza,San Jose,CA,US,951382473,-121.78,37.29,-480
5d3bc329-a2dd-4b85-894e-01d7876bad47,69690,Camp Carroll,13068-156085,,"432,  Waegwan-eup, Chilgok-gun",,Camp Carroll Army Base,Seokjeon,47,KR,718-803,128.67,35.89,540
6d8d08a7-23ac-45e4-881f-01d7e373bd39,1015047,Mohamed V International Airport,47380-258070,,Mohamed V International Airport,Nouasseur,,Casablanca,MA,MA,,-7.58,33.37,0
3d88c264-6312-4b58-90b6-01dc8a075489,771,Westin Bayshore,75973-92562,,1601 Bayshore Dr,,,Vancouver,BC,CA,V6G 2V4,-123.13,49.29,-480
6ec26c2a-31b2-4064-a8bc-01dd45a29aaa,17668,Safeway-Chico #1651,74289-76581,530-895-6300,690 Mangrove Ave,,,Chico,CA,US,959263947,-121.84,39.74,-480
c46ed0a5-9445-4424-b594-01ddaf5dd0d6,88258,Haeundae E-Mart,17230-180045,,"1767 Jung-dong, Haeundae-gu",,,Busan,26,KR,612-010,129.17,35.17,540
3b3ff826-fa5d-4a18-b7a2-01dde5652496,1013317,Teavana - Phipps Plaza,28726-249724,404-261-3004,3500 PEACHTREE RD,STE 1250,Phipps Plaza,Atlanta,GA,US,30326,-84.36,33.85,-300
88a022da-aa20-459e-a58a-01de6740f744,1010193,临海耀达百货店,24225-236231,,靖江中路122号,,,临海市,33,CN,317000,121.14,28.85,480
06454d72-d396-40a6-a40c-01e16168e094,13708,Vons-Las Vegas #2390,74618-93366,702-896-7544,475 E Windmill Lane,,,Las Vegas,NV,US,891231808,-115.15,36.04,-480
514b081a-d2c3-457b-9a31-01e469c4a0d5,18678,Ferris State University - IRC Conne,70049-117446,231-591-5555,1201 S State St,,,Big Rapids,MI,US,493072747,-85.48,43.69,-300
0c474e2f-82ce-498a-8a2a-01e9cebe8067,18077,QFC - Port Hadlock #870,79432-102666,360-385-1070,1890 Irondale Road,,,Port Hadlock,WA,US,983399582,-122.76,48.03,-480
df20f3bd-e55b-42cb-aa2d-01ebd99d5ada,1007013,Krasnaya Roza,18904-138404,,Timura Frunze St 11,Khamovniki District,,Moscow,MOW,RU,119034,37.59,55.73,180
b3df4ca1-3638-4826-b13c-01ef1b2aefb2,17632,Lake & Waukegan,2239-950,(847) 729-6050,1401-C Waukegan Road,,Glen Oak Plaza,Glenview,IL,US,600252160,-87.8,42.08,-360
0cfa81b5-7872-4675-9341-01f14347a526,91070,Dundas & Aukland,17624-176765,(416) 231-2098,5251 Dundas Street West,,,Toronto,ON,CA,M9B 1B2,-79.54,43.64,-300
1ae94c73-c68b-4f49-935a-01f3e354b1e1,1012516,Teavana - Solano Town Center,28385-250048,707-422-1497,1350 Travis Blvd Store,No. L-2,Solano Town Center,Fairfield,CA,US,94533,-122.05,38.26,-480
cb20500c-8fd7-495e-8f33-01f86808fa36,13552,95th & Broadway,7699-45959,(212) 316-0374,2521 Broadway,,The Lyric Building,New York,NY,US,100256924,-73.97,40.79,-300
16fcd59c-8c7a-41b3-9f00-01f96c21f9d3,1016108,Target Freeport T-3236,47676-259007,516-544-6771,248 SUNRISE HWY,,,FREEPORT,NY,US,11520,-73.59,40.66,-300
1a7c81b0-3c99-456c-b061-01f9f562676c,1753,北京华宇时尚店,32320-116537,010-51626616,海淀区,数码大厦B座华宇时尚购物中心内,中关村南大街2号,北京市,11,CN,100086,116.32,39.97,480
988785d8-3d66-4353-b634-01fae88a39a4,1015288,Universite Caddesi,29608-254411,,Universite Caddesi Yorulmaz Sokak,,,Tepebasi,26,TR,26170,30.51,39.79,120
cd3783da-01e5-44db-a817-01fbbf20c164,1011410,Suntec City Mall level 1,24103-235468,,3 Temasek Boulevard,#01-433 Suntec City Mall,Suntec City Mall Level 1,Singapore,1,SG,38983,103.86,1.29,420
93077dc6-dacc-47dd-9150-01fc2d2dce8e,8974,Stonehenge,8270-1606,(919) 846-0633,7498 Creedmor Road,,,Raleigh,NC,US,276131664,-78.68,35.89,-300
e9ddb5cc-e83b-4161-9db4-01fcfbb35d45,1015766,Silver Plaza,25364-238332,,TBD,,,RIYADH,1,SA,,46.62,24.68,180
b31fd61b-91bf-4c40-9b4e-01fe5256b30a,1007236,Aura,20260-204424,,"Svobody street, 46a",Central District,,Yaroslavl,YAR,RU,150000,39.87,57.63,180
13aa43a3-ced7-4a35-8a95-01fe81e075b2,6559,Sepulveda & 89th,14211-113350,310-645-0416,8844 S. Sepulveda Blvd,,,Westchester,CA,US,900454833,-118.4,33.96,-480
9cebd089-98dc-44b8-ab25-0201cedf1542,9849,Hesperia & Bear Valley,10489-101005,760-948-4300,17003 Bear Valley Rd,,,Hesperia,CA,US,923451419,-117.29,34.47,-480
ae59d7ce-e105-4e59-bc39-0209b52395c3,11055,Super Target Birmingham ST-1772,72614-22325,205-408-7687,4616 Highway 280,,,Birmingham,AL,US,352425028,-86.71,33.43,-360
26d7ca4b-ac85-48f0-adf7-020e07954a04,17988,Hwy 341 & I-95,13242-106834,912-264-8284,5043 New Jessup Highway,,,Brunswick,GA,US,315201267,-81.52,31.22,-300
32fe179c-492a-4d12-91a2-02108084aef0,8725,College & Bennington,6331-10498,225-216-7880,3009 College Drive,,,Baton Rouge,LA,US,708083118,-91.14,30.42,-360
3eaa8093-6c4f-4c9d-92e8-0212dabdffec,16072,Wolf Road,7379-1056,(518) 435-9280,18 Wolf Rd,,,Albany,NY,US,122052609,-73.82,42.71,-300
0f7464b4-0891-4ac5-b1c7-021326702910,1008940,Highway 169 and Freeport-Elk River,20689-206848,7634413991,19179 Freeport Ave,A,,Elk River,MN,US,55330,-93.56,45.32,-360
5de8b3a7-a414-48a7-9188-02186a8190a9,8693,700 E & 400 S - Salt Lake City,5658-2066,801359-8132,655 E 400 S,,4th South Market,Salt Lake City,UT,US,841022870,-111.87,40.76,-420
6a9950d4-3770-476c-a8d9-0219ffd9d042,15765,Powers & Stetson,8830-93513,719-573-4758,6082 Stetson Blvd,,,Colorado Springs,CO,US,809233562,-104.72,38.91,-420
7d1ba071-7e49-4e2b-b0af-021a477bcf7a,1012122,包头百货大楼店,27615-247445,,昆都仑区,包百大楼一楼西门,钢铁大街64号,包头市,15,CN,14000,109.82,40.66,480
76d70787-3c4b-44fc-bdc0-021cca24b41b,9633,Target Santa Rosa T-937,76425-97418,707-575-0665,1980 Santa Rosa Ave,,,Santa Rosa,CA,US,954077621,-122.71,38.42,-480
6a07885b-95d4-4610-bc23-021fbed291ed,69039,哈尔滨松雷店,16412-169986,0451-87651497,道里区,松雷国际商厦一层,中央大街66号,哈尔滨,23,CN,,126.62,45.77,480
8fa58d3b-610c-42aa-8e79-021fe2ea302f,16899,Safeway-Parker #1446,74120-17634,303-840-1604,11051 S Parker Road,,,Parker,CO,US,801347441,-104.77,39.52,-420
9b714777-e364-4c20-ba62-022344fbe28d,15078,Mission & Warm Springs Blvd,5939-45459,510-661-9956,46655 Mission Boulevard,100,Warm Springs Plaza,Fremont,CA,US,94539,-121.93,37.49,-480
c227b4ff-e295-4105-9517-0228da28159c,13827,"Keene, West St.",8810-95184,603-357-6061,281 West Street,,,Keene,NH,US,34312411,-72.29,42.93,-300
8db90ec5-745e-44eb-9568-022cf80afd04,754,University of Toronto/Toronto/Medic,75438-106189,4165984342,1 King's College Circle,,,Toronto,ON,CA,M5S 1A8,-79.4,43.66,-300
511e8936-0c06-466f-9f08-022f8017b36c,3714,atre Kameido,30165-15474,03-5609-1485,5-1-1 Kameido,,,Koto-ku,13,JP,136-0071,139.83,35.7,540
7921195a-bcb2-4a5a-b6b6-023077ee792d,7892,Hen House-Lenexa #19,79288-74462,913-573-1281,15000 87th Pkwy,,,Shawnee Mission,KS,US,662154160,-94.76,38.97,-360
ee477dac-950e-41c9-adff-0231de158163,1006837,Hy-Vee - West Des Moines #1,22355-217605,,1700 Valley West Dr,,,West Des Moines,IA,US,50266,-93.75,41.6,-360
f00a8681-5418-4aca-8bbc-0231f38c8131,1013991,Aeropuerto Juan Santamaria,27715-248634,,Autopista General Canas,"Alajuela, Costa Rica",,Alajuela,A,CR,,-84.12,9.6,-360
66545d89-1521-449f-a1eb-0235841fb9e3,7245,38th & El Camino Real,9339-96308,650-638-0210,3790 El Camino Real,,,San Mateo,CA,US,944034423,-122.29,37.53,-480
a42b2690-9f68-492b-90cb-0235b9a66e0f,1009031,Olympic Park North Gate,23428-230106,,"468 Seongnae-dong,Gangdong-gu",,,Seoul,11,KR,134-848,127.13,37.53,540
bdf73770-1356-462a-8a6c-0237bc308a15,1006736,Hwy 423 & 720,22479-204627,4693628549,2170 FM 423,100,,Little Elm,TX,US,75068,-96.89,33.17,-360
983d00d5-71d0-4ab9-b027-0239f2f4913a,18696,Frys-Prescott Valley #63,6067-145466,928-445-3010,3100 N Glassford Hill Rd,,,Prescott Valley,AZ,US,863142285,-112.34,34.59,-420
a3cbc40c-b2db-46f2-ab33-023a93ac36a0,1008356,郑州丹尼斯大卫城,22083-207904,,郑州市,丹尼斯大卫城B1F-35,二七路188号,郑州市,41,CN,710000,113.67,34.76,480
4054080d-0290-4a3b-ae0e-023b569e01ad,88359,Kyungpook University,16918-176945,,"1339-1, Sangyeok-dong, Buk-gu",,,Daegu,27,KR,702-842,128.61,35.89,540
11d6a9ca-cdac-4552-8f1e-023ca72d4325,7151,Target Sierra Vista T-735,76501-99351,520-452-0035,4151 E Hwy 90,,,Sierra Vista,AZ,US,856352425,-110.26,31.56,-420
838ba07d-6f63-43f8-b1e8-023cc39db625,5897,Outlet Village-KhaoYai,31909-124465,844387418,"888 Outlet Village Korat,","Moo 7, Mitraphab Road,",,Pakchong,30,TH,30130,101.39,14.66,420
b1efe4c4-c875-4e8f-8479-023fa23b50cd,19053,Muzeum,12733-149006,4.20E+11,Václavské náměstí 57,,,Praha,PR,CZ,110 00,14.43,50.08,60
bf9ed952-eb11-472b-b6d0-02423aed2e2b,18310,Target Columbus/Dublin T-666,76779-108118,614-796-8160,6000 Sawmill Rd,,,Dublin,OH,US,430171626,-83.09,40.09,-300
d70f6e43-dc6d-4e5a-a36d-024515e833c9,1015381,Atlantic Ave & Turnpike,27030-239809,561-254-1665,7901 Atlantic Avenue,Suite 105,,Delray Beach,FL,US,33446,-80.17,26.45,-300
f41c6886-04d2-4ee5-8218-024645639825,979,"YUL Mont Drvl Intl Depart, Gate 16",72385-5765,514-633-9972,975 Boul. Romeo Vachon,#275 Nord.,,Dorval,QC,CA,H4Y 1H1,-73.75,45.46,-300
5178d375-cb7f-4792-ad8e-02467e2cc012,7943,39th & Holgate- Portland,10051-97663,503-771-1552,4437 SE 39th Ave,A,,Portland,OR,US,97202,-122.62,45.49,-480
cf837149-73f3-4833-8d6d-0246f115dc78,1005219,Kingsview Market,19451-192064,403-945-3444,2100 Market Street SE,101,Kingsview Market,Airdrie,AB,CA,T4A 0R8,-113.99,51.27,-420
a05eef01-94b8-4bdf-b104-024980ae5ad7,7202,Combs Flat Crossing- Prineville,10695-102080,541-447-3049,1590 NE 3rd Street,1,,Prineville,OR,US,977542916,-120.83,44.3,-480
e468f2b2-a77e-4650-8700-0251be54509f,15310,"Norwalk, Dansk Plaza",7864-83541,203-840-1052,56 Westport Ave,,,Norwalk,CT,US,68513915,-73.4,41.12,-300
4143cb5c-f6bc-43c1-a40a-0253bbfcbeca,1005536,East Carolina University Joyner Lib,19798-189585,,E 5th Str,,,Greenville,NC,US,27858,-77.37,35.61,-300
95d7bc96-b6bb-4766-838e-02567846b7af,10478,"Kroger-Augusta, GA #676",73904-108009,706-731-7300,2801 Washington Rd.,,,Augusta,GA,US,309092111,-82.03,33.51,-300
cb5bdecc-8836-4114-b56b-02567fb5ff7b,1008364,Twofour 54,22126-218024,,Al Salam Street,,,Abu Dhabi,AZ,AE,,54.38,24.48,240
13e08255-b222-4a32-a5e5-025a5d7db2cf,17269,"Portsmouth, Woodbury Avenue",10325-99909,603-436-1547,1855 Woodbury Avenue,,,Portsmouth,NH,US,38013228,-70.79,43.09,-300
998eae36-1aee-4a5c-9e16-025f579d214f,1016239,Ralph's - Los Angeles #185,49341-237439,310 6412813,5245 W Centinela Ave,,,Los Angeles,CA,US,90045,-118.37,33.98,-480
09e3bc2f-17c6-4311-b9c7-0267d77a1be9,1014746,Mall of Africa,47609-253286,27873500215,"Shop 2077, Upper Level, Waterfall City",,,Midrand,GT,ZA,1682,28.11,-26.02,120
772bfe23-a85d-4fd9-adc1-026893bfabf4,88252,Kangwon-University,17041-178990,,"632-3, Hyoja-dong",,,Choonchun,42,KR,200-092,127.75,37.87,540
a1c8e969-fe70-4963-8f0f-026a17fbfa91,10388,FM 423 & Eldorado Pkwy,10981-101384,972-668-5233,2831 Eldorado Parkway,101,,Little Elm,TX,US,750683540,-96.88,33.18,-360
a571d0ac-6398-4d1f-9ec2-026c1bd5e359,1014802,南京缤润汇购物中心店,27239-246604,,江苏省南京市,,建邺区楠溪江东街83号一层104铺位,南京市,32,CN,210000,118.73,31.99,480
bfd29778-d309-4eef-8488-026de263d45c,1015356,Glassford Hill Rd & Sundogs,29026-251944,928-642-7505,3322 North Glassford Hill Road,A101,,Prescott Valley,AZ,US,86314,-112.34,34.59,-420
30e804ff-82da-4a22-befa-026ff1204ff7,69716,Yokohama Sky Bldg.,16682-173849,,2-19-12 Takashima Nishi-ku,,,Yokohama,14,JP,220-0011,139.63,35.46,540
cf4a9e98-716a-4f25-951a-027064ceb835,1012433,Teavana - Crabtree Valley Mall,28296-249802,919-783-7900,4325 Glenwood Ave.,#1068,Crabtree Valley Mall,Raleigh,NC,US,27612,-78.68,35.84,-300
200859d0-0a08-42d8-b55c-02752af3e7b2,6950,Lusby Commons,11631-79201,410 326-0942,11738 Rousby Hall Road,Space B101,Lusby Commons,Lusby,MD,US,206572606,-76.44,38.37,-300
8456da5a-c0ab-4395-a981-0276dd271518,4509,서울극장점,1573-138370,02-758-8269,59-7 서울극장 1층,,,서울,11,KR,110-420,126.99,37.57,540
69b2ac59-f83f-4bfd-97de-0278db16002a,8212,Harris Teeter-Holly Springs #118,79270-93640,919-363-3059,5277 Sunset Lake Rd,,,Holly Springs,NC,US,275403768,-78.8,35.66,-300
0c83d704-bcfb-4bb6-a745-027cf53d5d23,6066,Chong De,31346-105091,,"Sec. 3, Chongde Road",,,Taichung City,TXG,TW,406,120.7,24.18,480
73bcfae7-8d91-4906-a084-0280a24084b7,14204,Dempster & Niles - Skokie Swift,2711-83397,847-679-7287,5001 W. Dempster St.,,,Skokie,IL,US,600771842,-87.75,42.04,-360
41d3a13a-8318-4722-adce-0284168d1aaa,19443,University of the Sciences-Philadel,4150-150644,215-895-1122,600 S 43rd St,,,Philadelphia,PA,US,191044546,-75.21,39.95,-300
3e34a1aa-86ea-4525-9317-028738722a3a,3883,Tamachi Eki Nishiguchi,30192-29058,81-3-3452-8840,5-33-8 Shiba,,,Minato-ku,13,JP,108-0014,139.75,35.65,540
f2825668-feb8-47cc-9e0b-02881f4d3b9e,1011434,Sakata Mizuho,25902-231686,,1-20-6 Mizuho,,,Sakata,5,JP,998-0853,139.85,38.9,540
9496e02f-5408-46c4-a47a-028918bf96b6,69601,Balikpapan Plaza,1818-142724,,"JL. Jend Sudriman No. 1, Klandasan Ilir",,,Balikpapan,SM,ID,76113,116.82,-1.22,-540
04b41bda-71ab-4fc0-882c-028c8682f7a9,1006962,Nantou Rest Area-Freeway #3,22977-226789,,"No.6, Aly. 142, Ln. 250, Nanxiang Rd.",,,Nantou City,NAN,TW,54051,120.71,23.9,480
97b477c3-1402-4cc5-be63-029303e372f6,1015202,Staines - High Street,47857-260067,01784 459 067,68 High Street,,,Staines,ENG,GB,TW18 4DY,-1.48,52.92,0
36020555-1a5c-4928-9b53-0297deab6291,4489,포이점,34522-99727,02-758-8122,229-1,,,서울,11,KR,135-964,127.05,37.48,540
32765408-3135-4e51-a6a8-029b4ff12f39,17799,"Panama & Stine, Bakersfield",10098-98998,661-831-2483,4741 Panama Lane,,The Palms Dining & Shopping Center,Bakersfield,CA,US,933133490,-119.05,35.3,-480
e6cdbdcf-2d07-4432-a20e-029b69bf34b0,113830,崇明八一广场店,18847-195964,021-59618862,崇明县,八一广场一层,城桥镇八一路206号,上海市,31,CN,,121.4,31.62,480
464db790-6ed7-43c9-85bf-029f0caa274d,1005333,Odakyu Shinjuku,19709-201524,,1-1-3 Nishishinjuku,,,Shinjuku-ku,13,JP,160-8001,139.7,35.69,540
11e55404-c050-4de6-a189-02a1b08f1ac9,1007897,Living World,12969-154207,,Jl. Alam Sutera Boulevar Tangerang,,,Jakarta,JW,ID,15235,106.88,-6.15,420
7a2eb54f-5542-4dcb-8078-02a3660984f0,1008425,长泰广场店,22407-213184,,浦东新区,,祖冲之路1239弄6号10号楼1层05-159单元,上海市,31,CN,,121.6,31.21,480
ed5c0236-d00d-4e6d-9ca7-02a4b5ba5865,65990,Stansted Airport DT,14945-154366,01279 680361,A120 Thermal Lane,London Stansted Airport,,London,ENG,GB,CM24 1PY,0.25,51.88,0
7b8f7c48-5f37-44e2-8796-02a81fccac50,1008674,Palm & Harvard,22257-196805,805-525-8082,310 South Palm Street,,,Santa Paula,CA,US,93060,-119.07,34.35,-480
37e894ac-fa8e-4dd8-a204-02a820bb3dea,1014178,Amos Hall,27117-246871,4124028182,4022 Fifth Ave,,,Pittsburgh,PA,US,15213,-79.96,40.44,-300
4aa794d1-b420-4535-a231-02a9b90e01ea,15113,Vermont & Prospect,5794-19180,323-662-7705,1700 N. Vermont Avenue,,,Los Angeles,CA,US,900274306,-118.29,34.1,-480
a4d08fac-20ef-48a8-9de7-02ad8382bb0b,1015068,Incheon Yeonsu,48283-262427,,Yongdamro,,,Incheon,28,KR,21927,126.68,37.42,540
4a3a2495-d3f9-4959-a163-02ae4e4445c9,1012467,Teavana - Mall of New Hampshire,28330-250066,603-621- 0029,1500 S. Willow St.,#S123,Mall of New Hampshire,Manchester,NH,US,3103,-71.43,42.96,-300
f23c49ba-a13d-44b4-9e60-02b017695e70,9991,Von's-West Hollywood #2739,3575-126987,(310) 595-1737,8969 Santa Monica Blvd.,,,West Hollywood,CA,US,900694934,-118.39,34.08,-480
bee2ac10-9fee-4ed0-bca9-02b5bc33244b,7881,Kroger - Decatur #459,79316-100124,404-294-5311,2875 North Decatur Blvd,,,Decatur,GA,US,300335911,-84.27,33.79,-300
f7d1c1cd-ee84-4f86-a503-02b8fddba34f,19362,Auchan Troyka SM Ground Floor,1562-152965,,Verkhnaya Krasnosel'skaya street 3A,Baumansky 61,,Moscow,MOW,RU,107140,37.67,55.78,180
0909786f-7ca8-4f88-91a0-02bbca3d7b97,14598,St. Paul-Grand Ave & Oxford St,10156-99311,651-221-4465,1062 Grand Ave.,,,St. Paul,MN,US,551053805,-93.14,44.94,-360
c83a2845-6fad-4844-be84-02bdb4d07cb8,1008336,台州耀达百货店,21994-216830,,椒江区,台州市耀达商城,市府大道289号,台州市,33,CN,318000,121.43,28.65,480
4429febd-5b71-4661-a9f2-02bdf8445805,1009309,Tops Markets - Rhinebeck #531,23676-138166,845-876-7800,6734 US-9,,,Rhinebeck,NY,US,12572,-73.9,41.95,-300
3d3057b9-fd21-4492-8826-02be616b682f,1007421,Prabhadevi,22456-221251,,"Upper Ground Floor, Century Bhavan","Century Bazaar, Prabhadevi",,Mumbai,MH,IN,400030,72.82,19.01,330
6dd21ec0-e0fe-4090-9b2e-02c2705742b6,13726,Washington & Clinton,2877-88641,312/463-0331,40 N. Clinton St.,,,Chicago,IL,US,60661,-87.64,41.88,-360
a82c9e16-633b-4b77-b630-02c3cbf540ad,8715,Union Street Station,8330-9112,352-374-8227,201 SE First St,Suite 107/108,Union Street Station,Gainesville,FL,US,326011824,-82.32,29.65,-300
220e538c-251f-4303-9156-02c61014b203,92619,Al Ain Tower,17127-178586,,"Khaldiya Area, Abu Dhabi Island",,,Abu Dhabi,AZ,AE,,54.54,24.51,240
11e4ec03-9616-4f00-b07a-02c8f48eff06,10281,Placer Heights - Redding,9903-98975,530-241-4174,3425 Placer Street,Suite A,Placer Heights Shopping Center,Redding,CA,US,960012335,-122.42,40.57,-480
7a6c06ee-f8dd-4a2e-8234-02c91ae46024,4187,Okazaki Tatsumi,1843-140867,,2-9-13 Tatsuminishi,,,Okazaki,23,JP,444-0875,137.17,34.94,540
88dd9a9a-7383-41c8-8da3-02cb66aee0bc,10385,I 30 & Alcoa,10991-101243,501-778-4008,20701 I-30,,,Benton,AR,US,72015,-92.53,34.61,-360
e6f0bb27-4b09-456f-9b46-02d33da82eeb,1008528,Hachinohe Shiroshita,22789-224964,,4-2-1 Shiroshita,,,Hachinohe,2,JP,031-0072,141.49,40.52,540
90caeec0-731e-4906-a1f7-02da9c13c939,1006585,Waikiki Shopping Plaza,21274-210427,8089220703,2250 Kalakaua Avenue,,,Honolulu,HI,US,96815,-157.83,21.28,-600
6686190e-88ae-43c2-a95e-02dadd60b79e,1012699,Teavana - 29th Street Mall,28474-250153,303-440-3577,1810 29th St.,Spc. #1026,29th Street Mall,Boulder,CO,US,80301,-105.25,40.03,-420
ba34d291-2c3f-40c9-af7b-02dc530820d9,19369,SSP Luton Landside,12851-145946,1582485851,Landside,,,Luton,ENG,GB,LU2 9QT,-0.38,51.88,0
dd5c51c7-fac8-4fa2-a047-02dff2faca03,16479,Holcomb Br. @ Barnwell,8449-36141,6783521486,8420 Holcomb Bridge Rd,#220,Ellard Village,Alpharetta,GA,US,300221836,-84.27,33.99,-300
91447346-5c00-4791-8adf-02e1f6a2d0e8,11302,3400 Bay to Bay Blvd.,8538-67943,813-835-0506,3409 Bay to Bay Blvd.,,,Tampa,FL,US,336297042,-82.5,27.92,-300
18b3c80d-237f-4333-bb49-02e2d847dff4,3537,Toshimaen Eki-mae,30553-95663,,4-18-8 Nerima,,,Nerima-ku,13,JP,176-0001,139.65,35.74,540
12b4bdac-18d8-4048-ad1f-02e3f1474054,1012768,Teavana - Fashion Show,28572-249730,702-369-9732,3200 LAS VEGAS BLVD. S.,STE 1795,Fashion Show,Las Vegas,NV,US,89109,-115.17,36.13,-480
7038ab43-b1e0-40d6-a88f-02e4cdb6fa34,389,Safeway-Richmond #191,79539-97379,,8671 # Road,,,Richmond,BC,CA,V7C 1V2,-123.18,49.15,-480
0057182f-1f1e-479f-8f2a-02e53dfacea3,10018,Stop & Shop - Phillipsburg #816,79455-98841,908-859-8220,1278 US Hwy 22,,,Phillipsburg,NJ,US,88654123,-75.15,40.68,-300
3d58847d-72dc-49d5-a9ec-02e6682da78b,1007152,Starbucks,20799-207125,,Acibadem Mah Bagimsiz Bolum AnkaraDevlet,Yolu Haydarpasa Yonu 4 Km Cecen Sok D289,,Istanbul,34,TR,34660,29.05,41,120
f44081c6-e5d4-4942-a507-02e67fc750ea,1006375,Hall Rd & Hayes,2480-176366,5865661081,15069 Hall Rd,Ste A,Shelby Square,Shelby Township,MI,US,48044,-82.98,42.63,-300
997b5b32-7ee5-43a3-ae3f-02e8a30f1e19,15849,Leschi,3238-1636,206/720-4803,121 Lakeside Ave,Ste F,,Seattle,WA,US,981226587,-122.29,47.6,-480
25bbd85e-b173-4889-95ab-02eb04554106,1005168,广州新粤新分店,19343-200944,020-83590832,广州市越秀区,新粤新酒店首层东侧（自编1号）,环市东路329号,广州市,44,CN,510610,113.28,23.14,480
e3dcf74c-1980-4ffa-9da2-02ebbc6d6839,1852,赵巷店,31045-103084,021-59755257,青浦区,青浦区赵巷休闲场所,沪青平公路2888号B区101室,上海市,31,CN,201703,121.23,31.15,480
e0b44e9b-d969-4285-b373-02f0b20cafe4,1005302,FE21 Taoyuan-B1,31565-210384,,"No. 20, Jhongjheng Road",1F,,Taoyuan City,TAO,TW,330,121.31,24.99,480
2b959c02-09ff-49c5-ace1-02f0c4747c1f,13849,Bay Ridge Pkwy & 3rd Ave,2864-92970,718-836-3882,7419 3rd Avenue,,,Brooklyn,NY,US,112092407,-74.03,40.63,-300
e448fe94-fb53-408b-b6cf-02f801b4dc59,12025,Squirrel Hill,751-2034,4124216244,6304 Forbes Avenue,,,Pittsburgh,PA,US,152171717,-79.92,40.44,-300
e0392689-5d75-48c8-bf1e-02f8d69f54d9,12499,Farm Fresh-Hampton #240,72919-95394,757-850-0156,227 Fox Hill Rd,,,Hampton,VA,US,236691739,-76.33,37.06,-300
9da40b65-0e97-4786-852b-02fc44cf838a,17779,Arden & Morse,9897-93936,916-486-1204,3045 Arden Way,100,,Sacramento,CA,US,958252066,-121.39,38.6,-480
e485dd46-0306-470e-a12a-03019e5c7255,12309,190th & Anza,5720-5663,310-542-1072,5050 190th Street,,North Torrance Shopping Center,Torrance,CA,US,905031004,-118.37,33.86,-480
c282eaaa-d634-4936-948b-0303cdc28a0d,5295,Morelli,31738-103110,,Calle Morelli 279,San Borja,,Lima,LIM,PE,LIMA 41,-77.03,-12.06,-300
7c39b719-7605-4131-b5e0-030826f6dde2,10406,Target Houston T-858,76607-97998,713-939-7878,13250 Northwest Fwy,,,Houston,TX,US,770406003,-95.5,29.85,-360
8058d196-5369-4871-ac25-030909216ff6,1014095,苏州鲜橙广场,27589-247725,,苏州市工业园区星湖街,,218号4幢101A单元,苏州市,32,CN,215000,120.73,31.26,480
8b2be36a-c175-4dcb-b344-030b17508406,12449,Target Minneapolis T-1375,72669-48339,763-440-9390,900 Nicollet Mall,,,Minneapolis,MN,US,554032530,-93.27,44.97,-360
e58541f4-ab87-4f4d-8642-030d62c40c16,13577,South Brookline,880-2009,617-325-6261,183 Grove St,,,South Brookline,MA,US,2467,-71.15,42.3,-300
e1e0785f-edbf-4d0f-a10d-03115c5113e4,1009228,SSP Bath,23575-231424,,"Bath Spa Station, Platform 1",Dorchester Street,,Bath,ENG,GB,BA1 1SU,-2.36,51.38,0
d3f61a11-cb32-463b-98b3-03125fdf2c33,1008720,ISB & Clyde Morris,13970-109626,386-323-0471,1388 W International Speedway Boulevard,Suite 100,,Daytona Beach,FL,US,32114,-81.06,29.2,-300
2377c07f-9b4b-497f-a3bc-0312f0f0b614,113816,"Smithfield, Putnam Pike",17343-172067,4012310108,400 Putnam Pike,,Smithfield Commons Shopping Center,Smithfield,RI,US,29172408,-71.53,41.87,-300
9ea4bf29-9c11-4871-b310-0313eba93b65,1012626,Kowalski's - Excelsior,27578-238022,952-229-8300,440 Water St,,,Excelsior,MN,US,55331,-93.57,44.9,-360
51080aa1-f039-4161-ae9c-03155a0878fc,1008422,Toyosu Foresia,22404-212190,,3-2-24 Toyosu,,,Koto-ku,13,JP,135-0061,139.79,35.66,540
73b7b3e2-5ea2-43aa-b5d0-0315eedcfc80,1005378,Marriott University Park - Salt Lak,19368-186950,8015811000,480 Wakara Wy.,,,Salt Lake City,UT,US,84108,-111.83,40.76,-420
34178da8-867b-44fc-8bba-03167bfffe29,13745,Target Grapevine T-876,76173-90320,817-488-1800,1101 Ira E Woods Ave,,,Grapevine,TX,US,760514020,-97.09,32.93,-360
7a21deda-07cb-4cc8-951d-031d3763d643,10115,Target Arlington T-2192,76672-104564,360-386-4020,16818 Twin Lakes Ave,,,Marysville,WA,US,982714724,-122.19,48.15,-480
d6f69c65-d241-48f0-b05c-031fe72643f9,8758,"Shelton, Crown Point Center",9641-97804,203-929-4351,504 Bridgeport Avenue,,,Shelton,CT,US,64844765,-73.11,41.29,-300
ff4c3203-a466-4967-98da-0321a7dd1910,16087,Merrick,7302-555,(516) 379-7467,2015 Merrick Road,,LaBoutique,Merrick,NY,US,115664644,-73.55,40.66,-300
0fd0862a-88b5-4b97-ad35-03224ba4e89a,1006021,SFU - West Mall Building,21731-200386,778-782-9786,8888 University Drive,,,Burnaby,BC,CA,V5A1S6,-122.92,49.28,-480
9047a697-3b7b-477d-be0a-0329b8ce9f0e,1015998,Mia Newtown,49283-267704,,"812-2, Mia-dong",Gangbuk-gu,,Seoul,11,KR,1195,127.02,37.62,540
4d6abbd2-83de-4c45-bf04-032cf29f5d8f,1015167,THSR Nangang Station,47725-259566,,"B2  No.313, Sec. 1, Nangang Rd.",Nangang Dist.,,Taipei City,TPE,TW,11568,121.61,25.05,480
7c822349-d96f-4536-b7e2-032eba9ed105,1014601,Tobu Narimasu Eki,28486-247907,,2-13-1 Narimasu,,,Itabashi-ku,13,JP,175-0094,139.63,35.78,540
cd35f7fa-c794-4687-ad5a-03302881fe07,1007600,Price Chopper - Loudonville #188,22983-224625,518-459-8720,475 Albany-Shaker Rd,,,Loudonville,NY,US,12211,-73.78,42.71,-300
54620497-b93b-44e4-a4f0-0330548d7282,6927,Mall at Tuttle Crossing,13813-109866,614-793-8609,5043 Tuttle Crossing Boulevard,181,The Mall at Tuttle Crossing,Dublin,OH,US,430161511,-83.13,40.07,-300
a8148828-a404-4abd-89d1-0334308c95ba,8292,Michigan City-Franklin & Rte 20,9708-97842,219-879-5592,4103 South Franklin St.,,,Michigan City,IN,US,463607803,-86.89,41.68,-360
fd79f3a9-b820-4c12-ac8e-03366b8be3f0,1013687,Pyeongtaek Humpreys Troop Mall,28826-251226,,44-5 Doduri,Paengsung,,Pyeongtaek,41,KR,,127.01,36.96,540
19590a44-7846-4ae5-9a1a-0336b80b56fc,924,Cornwall & Cypress,4576-96682,604-733-6211,1895 Cornwall Ave,,,Vancouver,BC,CA,V6J 1C6,-123.15,49.27,-480
62de5266-3553-43fb-a182-0339f000c57e,12561,Safeway-The Dalles #1489,74302-77220,541-298-9488,520 Mt. Hood St,,,The Dalles,OR,US,970583555,-121.19,45.6,-480
59598655-b204-43be-95e9-033db24391cd,4501,아시아선수촌점,34524-99775,02-758-8124,175,,,서울,11,KR,138-220,127.08,37.51,540
f072a611-6adb-43a3-8dea-033f2c127098,1005178,MRT Banqiao Station-B1-3A,20718-207845,,"No.7, Sec.2, Xianmin Blvd",Banqiao District,,New Taipei City,TPE,TW,22041,121.46,25.01,480
7c62d595-ea66-498e-a3c6-03421e48710d,15441,Santa Monica & Pontius,5738-10772,3103122903,11155 Santa Monica Blvd.,,,West Los Angeles,CA,US,900253313,-118.45,34.05,-480
9edc4a1f-d787-46e0-848b-0345449b0e1e,113559,Jiaoxi,19019-197774,,"No.118, Sec. 5, Jiaoxi Rd.",Jiaoxi Township,,Yilan County,ILA,TW,262,121.77,24.83,480
ac0906f2-ac9a-44bb-a80f-0348a1bfcf30,69608,Wallasey - New Brighton,16137-157266,0151 6306556,Wallasey Water front retail park,,,Wallasey,ENG,GB,CH45 2HZ,-3.05,53.44,0
96693f97-84a6-4155-8667-0349bd016d0d,18500,Paseo & Golf Course Rd.,5845-24927,505/792-9003,8201 Golf Course Road,D-2,,Albuquerque,NM,US,871205842,-106.69,35.18,-420
1f98448e-a462-4e0c-9139-034d28c335e5,1016396,Jewel Osco - Minooka #3730,50194-272477,815-467-0924,2051 Ridge Road,,,Minooka,IL,US,60447,-88.27,41.42,-360
3b0c41e5-333a-4375-a3f2-0350234ba6d2,1014081,苏州望湖大厦店,26408-241305,,工业园区嘉瑞巷18号,,105、106单元,苏州市,32,CN,21500,120.72,31.32,480
9453b3b7-edc1-4039-8ce1-03504c676617,1399,Sunterra Mkt - TransCanada Tower,75131-65123,4032628200,450 1st Street SW,,,Calgary,AB,CA,T2P 5H1,-114.07,51.05,-420
b8613b2e-f57f-4618-997d-0351c5d4b0c7,15607,Indian Trail @ Oak Brook Pkwy,8501-53222,678-924-3738,1560 Indian Trail Lilburn Rd.,,,Norcross,GA,US,300932666,-84.17,33.92,-300
e36ef110-68c9-4e2b-bd75-03526d263f7c,69771,Starbucks,16539-156846,0 312 417 02 26,Gazi Mustafa Kemal Bulv. Kizilay,Alisveris Merkezi No:96 K:Zemin D:1,,Ankara,6,TR,6900,32.85,39.92,120
66a72519-6cff-4ac3-acf7-03528e91c067,8792,Albertsons-Las Vegas #6012,73655-96300,702-395-2700,8350 W Cheyenne Ave,,,Las Vegas,NV,US,891298408,-115.28,36.22,-480
85c4a136-28d0-4f64-adca-03569f6a0b90,4014,Narita Bon Belta,30438-84903,,2-1-10 Akasaka,,,Narita,12,JP,286-0017,140.29,35.78,540
d34f5bd6-cbbc-4aef-968b-0358925d2cc6,1016309,Fry's Chandler #681,48890-245841,14805668875,Gilbert & Ocotillo,,,Chandler,AZ,US,85249,-111.8,33.22,-420
7af72ea0-ad32-40dc-af6d-0358a0b35d92,116494,Double Tree South Bend,17896-177048,574-234-2000,123 N Saint Joseph St,,,South Bend,IN,US,466011624,-86.25,41.68,-300
92e771f9-6cd2-49de-b726-035900414afc,16922,N. Central Exp & Mockingbird,6367-27349,214-827-8101,5331 E. Mockingbird Lane,150,Mockingbird Station Shopping Center,Dallas,TX,US,752065169,-96.78,32.84,-360
d77b27d5-016f-4f8e-b214-035e298c69a5,116339,Aria Hotel and Casino-Promenade,18560-176165,(702) 590-3456,3730 LAS VEGAS BLVD S,,,Las Vegas,NV,US,89158,-115.18,36.11,-480
b4cc4694-5175-4260-aeef-03630956ceb3,1016024,Albertsons - Baker City #3211,49585-269685,5415192449,1120 Campbell St.,,,Baker City,OR,US,97814,-117.82,44.78,-480
e50ada4f-9356-4ca9-8313-036318e4777b,17447,Safeway - Bremerton #1467,79559-99766,360-792-9149,900 North Callow,,,Bremerton,WA,US,983123807,-122.65,47.57,-480
c56319c1-7af8-4815-9be2-036ba0f38701,1007206,Murfreesboro Memorial,22828-224024,6156129761,1641 North Memorial,,,Murfreesboro,TN,US,37129,-86.39,35.87,-360
06a1807a-9b90-4b96-8892-036c5a9964d6,1480,Limmatstrasse,32180-121325,41 44 271 06 30,Limmatstrasse 5,,,Zurich,ZH,CH,8005,8.54,47.38,60
23ba6112-24dd-42dd-b853-0376a2bc16a1,1007393,Hillv2,20609-192968,,"6 Hillview Rise , #01-05",,,Singapore,1,SG,667980,103.76,1.36,480
3fadcbd3-6689-4a81-8bb6-037a59bd064a,1006008,Target Asheville T-1807,19919-202925,828-298-1262,115 River Hills Rd,,,Asheville,NC,US,28805,-82.52,35.58,-300
8e489b96-ce0c-4d00-9ea2-037a88d5f21a,20062,Rest Area KM 97,13055-156050,,Tol Cipularang - Jakarta KM 97,,,Bandung,JB,ID,40213,107.44,-6.67,420
66e0fd59-a2e1-4aea-9993-037b5265815d,20128,Promenada,14882-154566,48713861454,ul.Ostrobramska 75 c,,,Warszawa,MZ,PL,04-175,21.11,52.23,60
f38e160c-d12c-406a-b8a9-037bf5043adc,1011871,Aeon Mall BSD,25458-225019,,Grand Boulevard BSD City,Desa Pagedangan,,Banten,BT,ID,15332,106.16,-6.04,420
9e26294f-df4d-4268-97e0-03801cca734f,90095,济南玉函路咖啡店,17138-175527,0531-67989642,历下区,鲁商泉城中心城市广场c地块B楼地上一层,经十路19288号,济南市,37,CN,,117.01,36.65,480
1dd3a804-a45d-4c5c-94b8-038316d1fd14,1013690,TREC,28994-252012,,"E-G-15 & E-A-15, Ground Floor","Electric Boulevard, TREC",,Kuala Lumpur,14,MY,50450,101.7,3.15,480
204a08ab-d3cb-486b-b41b-038337b69418,14340,"STL - Concourse C, Gate 17",75717-95752,,10701 Natural Bridge Road,,,St Louis,MO,US,63145,-90.36,38.74,-360
d700119b-6887-4299-bb7c-038498297f89,12500,2nd & Division,8655-93494,509-747-7617,172 S. Divison Street Suite A,A,,Spokane,WA,US,992021509,-117.41,47.65,-480
4d65c886-7d0c-450b-bba9-0387e5fc9c87,6999,Macy's 6th Floor,14092-114824,212-268-3695,151 W. 34th Street,,,New York,NY,US,100012101,-73.99,40.75,-300
f24a614d-7006-4b5b-9c22-038829b92b0a,68156,Macy's-Somerset Collection #301,16115-167724,248-816-4915,2750 W Big Beaver Rd,,,Troy,MI,US,480843204,-83.18,42.56,-300
8d6fdebb-c6e9-493e-9dce-038bd2677aaa,116347,Liverpool LJMU - Byrom St,18671-194105,1512312514,Bryom Street,James Parson Building,,Liverpool,ENG,GB,L3 3AF,-2.98,53.41,0
e8034197-d8f8-48df-b28a-038cfbd71ae0,13700,Barbur Blvd. & Terwillger,3713-82764,503/245-7540,7421 SW Barbur Boulevard,,,Portland,OR,US,972192886,-122.69,45.47,-480
4f0f2990-9a3e-494c-9ddf-038f95afabce,5083,Superama Santa Fe,30770-101701,,Av. Tamaulipas No. 3000,,,Mexico City,DIF,MX,5340,-99.28,19.36,-360
ffca5e99-3d2d-43c0-8a42-038fcdb8b3b6,92813,苏州石路店,17174-170815,0512-65562177,金阊区,国际商城批发中心,石路18号 1F 1001单元,苏州市,32,CN,215008,120.6,31.31,480
1c63dac4-81b0-4cf3-8a18-03913604907c,1058,250 Queen St. W.,4232-772,(416) 595-5868,250 Queen Street West,,,Toronto,ON,CA,M5V 1Z7,-79.39,43.65,-300
82fd8e69-5838-45a8-a57a-039b1058cd56,1006401,Central Festival Hat Yai,20838-188467,922798164,"Central Had Yai, Karnjanavanit Road",Hat Yai,,Songkhla,90,TH,90110,100.48,6.99,420
c514b5f0-1fa9-4e07-b1d1-039ced5ac247,63178,Target Oxnard T-2760,15778-159191,805-288-3642,2850 N Oxnard Blvd,,,Oxnard,CA,US,930365443,-119.18,34.23,-480
d70824fc-7d34-4e4b-ad2b-03a2ac455daa,3859,Osaka Garden City,30133-18599,81-6-6452-9262,3-3-20 Umeda Kita-ku,,,Osaka,27,JP,530-0001,135.49,34.7,540
a16ed230-5cf0-46d5-92e2-03a5083a6524,10918,The Pentagon - Retail Corridor,70012-103332,703.271.8810,Army Navy Drive & Fern Street,Room 1B - 1088,,Arlington,VA,US,22202,-77.06,38.87,-300
505ae688-6bab-4ad1-983f-03a6417fca18,18011,Kroger-Athens #255,72524-102557,7063538543,2301 COLLEGE STATION RD.,,,Athens,GA,US,306056609,-83.34,33.92,-300
4777f6a4-d80c-46c5-b62f-03a6d85cf5ed,89856,Cityscape,15433-161464,,"6 Of Octobe, El Horya Square",Giza,,Cairo,C,EG,,31.35,30.13,120
5e16696f-b151-4b70-b45b-03a847944785,1005913,Macys @ Biltmore Fashion Park,20488-195008,602-468-2100,2410 East Camelback Road,,,Phoenix,AZ,US,85016,-112.03,33.51,-420
dc7b53f9-588a-47a0-8b13-03a9664f225c,1011701,AEON MALL Asahikawa Eki-mae,26291-235224,,7-2-5 Miyashita-dori,,,Asahikawa,1,JP,070-0030,142.36,43.76,540
efad12e6-89f2-4f3b-98bd-03a9a2ff2e37,4604,대한극장점,34430-67580,02-758-8030,"19-1 대한극장 1,2층",,,서울,11,KR,100-014,127,37.56,540
c62469ba-a90f-47f0-a8d3-03abd1551537,18367,Target Minnetonka/Hopkins T-0100,76736-104469,952-542-8250,13201 Ridgedale Dr,,,Minnetonka,MN,US,553051808,-93.45,44.97,-360
0668394f-6331-473c-8eea-03ade3b34666,4249,Sun Live City Kokura,30592-99414,,2-14-1 Kamikuzuhara Kokuraminami-ku,,,Kiatakyusyu,40,JP,800-0255,130.91,33.84,540
352c4d34-99dc-4984-92c7-03afc8e1f1e5,90272,Malahide,18704-194296,35318283310,"Unit 2, The Green Strand Street",,,Malahide,L,IE,4,-6.15,53.45,0
e5ed96b9-8d1f-444c-918c-03b249bb7dd4,116307,Okinawa Makabi,17783-182485,,1-14-13 Matsushima,,,Naha,47,JP,902-0069,127.7,26.22,540
1882e776-1fae-4ad5-b556-03babf0c872d,1005559,Mall of Louisiana (Kiosk),17000-193388,2257696589,6401 Bluebonnet Blvd,,Mall of Louisiana,Baton Rouge,LA,US,70836,-91.09,30.39,-360
8cea35ba-5fce-4234-8db8-03bea3b7be61,1007451,University of North Alabama,17646-153585,,1 Harrison Plz,,,Florence,AL,US,356320002,-87.68,34.8,-360
e5fb34f1-32cb-422a-9d11-03c4a90c7d78,7068,Target Monaca T-2100,76562-99399,724-775-9423,87 Wagner Rd,,,Monaca,PA,US,150612421,-80.3,40.68,-300
385528f8-08ed-4263-a8c7-03c77c329b3b,12869,Manorville,7861-83522,6313958097,485 CR-111,,,Manorville,NY,US,11949,-72.8,40.87,-300
d7672e22-4006-42a8-9fbd-03c8e0ad0553,3780,Best Western Hotel NAGOYA Sakae 4-c,30135-24188,81-52-251-7773,4-6-1 Sakae Naka-ku,,,Nagoya,23,JP,460-0008,136.91,35.17,540
0006544a-8707-4741-9c87-03cdf9716c1e,4035,Yokohama MORE'S,30061-12107,81-45-411-0488,1-3-1 Minamisaiwai Nishi-ku,,,Yokohama,14,JP,220-8533,139.62,35.47,540
26d05146-7f8e-48a8-991f-03ce201d9d17,12788,E-W Connector & Floyd Rd,2968-88420,678-842-9143,1025 East-West Connector SW,Suite 510,,Austell,GA,US,301068531,-84.58,33.86,-300
5e1fdbc5-3fa9-4190-9f14-03d13a84e78e,1009022,"Country Club & Juanita, Mesa",23472-228104,480-292-1325,1821 S Country Club Dr,,,Mesa,AZ,US,85210,-111.84,33.38,-420
edea6534-8fc3-49a7-942a-03d9d7c09fad,12441,Ridge & Butler,8700-94181,610-834-9324,2 East Ridge Pike,,White Marsh Shopping Center,Conshohocken,PA,US,194282117,-75.29,40.09,-300
983e376d-d15d-4df2-a4cd-03da448d0f25,3003,Darlington - Northgate,12750-140644,1325284187,Northgate,Unit 2 Queen St Shopping Centre,Queen St Shopping Centre,Darlington,ENG,GB,DL3 6SL,-1.55,54.53,0
57e7e18d-42a6-41f0-a0d6-03e575f029a7,1009767,Yangjae Station,21320-211245,,"14-4 Yangjae-dong, Seocho-gu",,,Seoul,11,KR,137-888,127.04,37.48,540
64e3a8c9-f5eb-49af-8a4a-03e6b450afbb,1015172,Pinner High Street,47770-259789,020 8868 6250,19-21 High Street,,,Pinner,ENG,GB,HA5 5PJ,-0.39,51.58,0
104b6aa6-1d63-458e-af68-03e788779bf9,6121,Tong Ling,33371-15336,866-2-8771-0612,"No. 201, Sec. 4, Zhongxiao E Rd.","1F, A1",,Taipei City,TPE,TW,106,121.55,25.04,480
a1ce718e-2375-45fa-959a-03e8aa8b3a65,1014638,Save On Foods Regina South,47245-257147,13065465739,4520 Albert Street,,,Regina,SK,CA,S4S 6B4,-104.62,50.41,-360
af12594e-9c45-473c-805b-03eb649a655b,1010588,Haymarket,25277-240391,,730-742 George Street,"Shop G1, L1 16 & 17",,Sydney,NSW,AU,2000,151.21,-33.88,660
beaa86c4-f48b-4a0f-a0be-03ecaa8976c6,35527,Apgujeong Center,15565-163169,,"639-7, Shinsa-Dong, Gangnam-Gu",,,Seoul,11,KR,135-896,127.04,37.53,540
b4498fdc-d2cd-4ab7-985e-03f2d021e287,1080,125 Riocan Ave,4652-99940,613-823-3345,125 Riocan Ave,1,,Ottawa,ON,CA,K2J 5G4,-75.74,45.27,-300
2e9a22d7-10c1-421e-a5af-03f4b26c7a5c,89206,Western Canada Place,17369-170484,4032614630,801 6 Street SW,230S,Western Canada Place,Calgary,AB,CA,T2P 3V8,-114.08,51.05,-420
347c83e8-032f-4580-ae2e-03f8451efb34,9483,Boise Towne Square,10070-99370,2086722677,350 N. Milwaukee,2035,Boise Towne Square,Boise,ID,US,837049123,-116.28,43.61,-420
81f83f0a-7c6f-4221-aae0-03fde5d5cfde,1215,Sherwood Park Chapters,4390-20920,780-449-4304,2020 Sherwood Drive,#500,Sherwood Park Mall,Edmonton,AB,CA,T8A 3H9,-113.29,53.53,-420
84bf599a-5276-43e8-8e16-03ff209d3682,1016867,Sapporo Kitano,48406-260026,,5-374-3 Kitano 6-jo Kiyota-ku,,,Sapporo,1,JP,004-0866,141.45,43.02,540
4f031fb3-ef21-499c-a73e-0400fe99d185,1014097,苏州曼哈顿广场店,27591-247727,,工业园区唯华路5号-5号楼101室,,,苏州市,32,CN,215000,120.69,31.36,480
9ccabb0b-ff08-4791-a503-0407bedca1c6,1008260,Ebina Chuo,21550-209310,,2-2-8 Chuo,,,Ebina,14,JP,243-0432,139.39,35.45,540
a049d1b9-5b80-4407-9bf2-040b7c0aebcf,20072,Safeway-Hilo #2893,1563-152524,808-920-8870,381 E  Makaala St,,,Hilo,HI,US,967205146,-155.07,19.7,-600
e2c33769-1ecd-4558-b2df-040d0a642580,11817,"Indian Hill & I-10, Claremont",6981-85422,909-445-0896,810 S. Indian Hill Blvd.,,,Claremont,CA,US,917115454,-117.72,34.08,-480
a1e7dfd3-817e-4c17-9564-04123a138441,14609,Hwy 64 & Museum,9810-98145,501-505-8326,905 East Oak Street,,,Conway,AR,US,720324715,-92.42,35.09,-360
3ecae06a-30a5-467f-9be8-0416b3d1c625,6070,Shi Pai,31271-104806,,Shipai Road,,,Taipei City,TPE,TW,,121.48,25.06,480
a39b9a40-b229-4050-9133-0418f57a1b45,1012998,Vanit Place,28839-251146,844387401,1126/1 New Petchburi Rd,,,Bangkok,10,TH,10400,100.55,13.75,420
b91e880e-16ba-4391-940f-04191bccdd5b,8425,I-10 & Thomasville Rd,9555-94584,850-894-7005,3425 Thomasville Road,,,Tallahassee,FL,US,323093493,-84.25,30.5,-300
0b4a4a5b-0ab0-45c0-8707-041e5269c200,10828,Safeway #3228 - Puyallup,79757-104110,253-414-1737,5616 176th E,,,Puyallup,WA,US,983759309,-122.35,47.1,-480
87e44004-e2fc-4c10-8b58-041eaccf77cf,3585,Keio University Hospital,31650-111640,,35 Shinanomachi,,,Shinjuku-ku,13,JP,160-8582,139.72,35.68,540
589232d1-31f8-437f-8046-041f46165e4b,1007810,贵阳亨特城市广场店,22684-222184,,南明区,亨特城市广场负二层1B号铺,机场路18号,贵阳,52,CN,,106.72,26.58,480
75b0dbcb-d173-4144-babf-0420e33bf801,11294,Johnson & Owens,6648-74021,925-251-0588,6050 Johnson Drive,B-1,,Pleasanton,CA,US,945883327,-121.91,37.7,-480
3e16b684-5b25-4fec-be24-04226ae3a5eb,5046,Parques Polanco,32789-136168,,Avenue Mariano Escobedo y Lago Alberto,,,Mexico City,DIF,MX,11320,-99.19,19.44,-360
2e97c74d-ff32-4893-aefe-0424373fa71c,1013373,宁波江东天伦店,26752-245229,,江东区,宁波天伦时代广场,中兴路268号一层1-84#室,宁波市,33,CN,315404,121.59,29.87,480
2f9df2af-fe96-4a67-b1d7-0425e0dec72e,1897,北京蓝色港湾圣拉娜店,32447-132306,010-59056343,朝阳区朝阳公园路6号,二层C1-3单元及二层阳台,蓝色港湾国际商区1座C1-3单元首层、,北京市,11,CN,100020,116.47,39.95,480
8dd38063-ae6e-4070-881f-04264febbabc,13965,Kroger-Birmingham #685,72809-74134,248-723-1151,685 E Maple Rd,,,Birmingham,MI,US,480096343,-83.21,42.55,-300
19ac0e54-9d3f-47b3-9281-0426ba73e01e,1016840,Citrus & Alosta,6447-244769,,890 E. Alosta Avenue,,,Azusa,CA,US,91702,-117.89,34.13,-480
62b9a2d5-7d25-4693-81e2-0428f8d26ed0,12117,Smoky & Himalaya,5283-284,(303) 699-5521,19751-A Smoky Hill Road,,,Aurora,CO,US,800155191,-104.76,39.61,-420
db108c8a-6205-4b60-a580-042c2b74e4e1,18954,Maure,7123-150606,5788-0585,Maure 1818,,,Buenos Aires,C,AR,C1426CUH,-58.44,-34.57,-180
bdc4ce2d-94a4-4216-9bf9-042f1dbd6cf7,68200,Target Lancaster T-2545,16136-156773,717-627-8250,960 Lititz Pk,,,Lititz,PA,US,17543,-76.3,40.13,-300
f0437537-59af-40f2-8e22-042ffdfa9f77,14493,Safeway-Mt Vernon #1472,74677-51839,360-424-8160,315 E College,,,Mount Vernon,WA,US,982735431,-122.34,48.44,-480
962f04dc-d402-45a3-a3f7-043148fee27a,1011113,Garden City - Upper Mt Gravatt,24303-236999,,Westfield Garden City,Kessels Road,,Upper Mt Gravatt,QLD,AU,4122,153.09,-27.54,600
b9183a70-7125-4f7c-aec6-043499f3bd25,1009401,连云港苏宁广场店,23763-231869,,新浦区,,通灌北路58号苏宁广场一层,连云港,32,CN,222002,119.19,34.6,480
3061d083-ad35-40b9-9763-0435c5378f23,7808,Salinas Valley Memorial Lobby,75300-97700,831-757-4333,450 E Romie Lane,,,Salinas,CA,US,939014029,-121.65,36.66,-480
379aca9b-a252-4f6a-8c10-043622f9a66c,6551,Target Brooklyn College,76878-100172,718-637-5005,2201 Nostrand Ave,,,Brooklyn,NY,US,112103036,-73.95,40.63,-300
fa68c3f4-a3a5-476b-ac3f-0436751d594c,94700,Oak & Rush,202-161424,3129515436,1003 N Rush Street,,,Chicago,IL,US,60611,-87.63,41.9,-360
2b62e218-07ee-45a7-9ff8-0436df36a43b,1012429,Teavana - Garden State Plaza,28247-249763,201-291-1800,1 GARDEN STATE PLAZA,#1075,Garden State Plaza,PARAMUS,NJ,US,7652,-74.08,40.92,-300
6ecc51e3-454c-46dd-b44d-043a76d663fd,1006781,87th & Third,20679-207324,212-369-2949,1542 Third Avenue,,,New York,NY,US,10028,-73.95,40.78,-300
497b54e3-9b02-4eb5-a6f1-043b7b1d52b8,1006006,Paseo Chapultepec Tijuana,21191-209751,,Lote 0001 Mza F Blvd Agua Caliente 10387,Chapultepec,,Tijuana,BCN,MX,22420,-117.01,32.51,-480
b0b5a6e8-2287-4e8f-bc80-043ef1d4eb41,5998,Starbucks,42503-87520,0 212 344 04 34,Buyukdere Cad. Metrocity Alisveris,Merkezi No:171 K:-1D:109,,Istanbul,34,TR,,29.01,41.08,120
c2cc7a69-8405-404a-a040-04422c25ad7a,1015780,65 Queen Street West Concourse,29903-254004,4163178852,65 Queen Street West,12,,Toronto,ON,CA,M5H 2M8,-79.38,43.65,-300
b75dbf4c-4ed8-4f6b-b1e6-044302b34198,1008620,青岛海航万邦中心店,3658-145611,,市南区,"""海航万邦中心 ""","香港中路与延安三路交汇处,",青岛市,37,CN,266000,120.38,36.06,480
fa45e4b7-ee26-40df-8098-0444de510df5,1014029,苏州长江壹号店,29107-252484,,吴中区,,长江路9号第一层6单元,苏州市,32,CN,215000,120.55,31.26,480
b4209a3e-99f4-4e0e-add4-04460dc58609,1005500,Price Chopper Saratoga # 158,21640-208888,518-580-9172,115 Ballston Ave,,,Saratoga,NY,US,12866,-73.79,43.07,-300
66f67e3e-a7c6-4b5c-987e-0447709b2b53,1006278,Paramus Park Mall Center Court,21770-213785,2012616318,700 Paramus Park,,,Bergen,NJ,US,7652,-74.07,40.96,-300
988bc239-4611-481a-8b02-04528c64c00b,7603,Holyoke Mall,11128-103913,413-552-3130,50 Holyoke Street,B322,Holyoke Mall,Holyoke,MA,US,10402709,-72.64,42.17,-300
9bfaaa83-4788-45b9-9275-0452f6fc8a88,89208,AEON MALL Yokkaichikita,18025-180145,,2-40 Tomisuharacho,,,Yokkaichi,24,JP,510-8016,136.66,35.01,540
ffb2f678-e074-4695-a1f4-045f905ed32d,8590,"Kingston, Massa Drive",10515-100690,845-336-5304,39 Massa Drive,,,Kingston,NY,US,124018107,-73.99,41.96,-300
1f94e2f2-0427-4607-81d1-04604d9a2179,1006160,Target St. Paul T-68,20425-204771,651-778-1188,1744 Suburban Ave,,,St. Paul,MN,US,55106,-93.03,44.95,-360
028a9a7d-968d-48a6-bb63-0462d6b31dd7,12968,Southern Illinois U/E-Student Union,75133-64500,618-650-3949,Morris Univ Ctr Campus Box #1,,,Edwardsville,IL,US,620250001,-90,38.79,-360
3ff12838-e6d6-403b-8a72-0466423b05dd,7464,6th & Sprague - Tacoma,13916-105932,253-272-1023,2008 6th Avenue,,,Tacoma,WA,US,984031045,-122.46,47.26,-480
03a54448-6680-4948-95db-0466cc9012d4,20218,Target Smithfield T-1404,15513-156775,401-232-1699,371 Putnam Pike #A-250,,,Smithfield,RI,US,29172440,-71.52,41.87,-300
6ceafb1a-f6e5-4359-a99a-0466d77f6d92,16855,Broward & Federal,8303-7947,954-523-2442,10 S. Federal Highway,,,Fort Lauderdale,FL,US,333011935,-80.14,26.12,-300
325490e5-ce9e-4d35-b6dc-0467cb881340,68700,Sol Casino - Hotel,16501-160704,520-429-7579,5655 W Valencia Rd,,,Tucson,AZ,US,857579714,-111.09,32.13,-420
97acec4c-4b57-4487-95b8-046e50898e75,69032,Yonsei east gate,16087-168288,,"115 Daesin-Dong, Seodaemun-Gu",,Yonsei Foundation Y Building,Seoul,11,KR,120-160,126.95,37.57,540
5aa402a9-8f36-4b02-9b00-0470403a70d9,116519,Daemyeong Resort Gyeongju,19397-202025,,"400-1 Sinpyeong-dong, 1F",Gyeongju-si District,Daemyeong Resort Gyeongju Blg.,Gyeongsangbuk-do,47,KR,780-290,129.17,35.5,540
d410ddea-665d-4a1e-9378-04751c1b4026,8139,Safeway - Sacramento #1530,74911-101861,916-483-9389,3320 Arden Way,,,Sacramento,CA,US,958252017,-121.39,38.59,-480
45d763b6-af93-4d4b-b1aa-0475fa8d7476,1006317,Luk Yeung Galleria,22175-217086,22371895,"Shop S10-12, Luk Yeung Galleria, 2/F",Tsuen Wan,,N.T.,91,CN,,114.12,22.37,480
e1673c03-76ba-4a57-9138-04775bbcc98d,113405,Mega Plaza Chimbote,18148-188044,,"Av. Victor Raúl Haya de la Torre 4522,",Chimbote,,Chimbote,LIM,PE,,-77.05,-12.09,-300
7b3411d9-05db-4acd-9462-04786452bf86,1835,南东店,31934-119647,021-63221136,黄浦区,百联世茂国际广场1楼,南京东路819号,上海市,31,CN,200010,121.48,31.23,480
6918a44d-b862-4abd-b3da-047c2a33d2ce,1012453,Teavana - San Francisco Centre,28316-250007,415-512-7205,865 Market St.,#324,San Francisco Centre,San Francisco,CA,US,94103,-122.41,37.78,-480
d9edcc14-ab50-4958-af7c-047d5a6a498b,91312,北京太阳宫凯德嘉茂店,17477-161286,010-84150945,朝阳区,太阳宫凯德嘉茂一层01-44/45号,太阳宫中路12号,北京市,11,CN,100028,116.45,39.97,480
a68db19b-2935-49d8-9980-048072b66c88,113732,Target Marion T-674,17637-183829,,3000 W Deyoung St,,,Marion,IL,US,62959,-88.98,37.75,-360
809e4bf0-20c8-418b-ae7a-04844767f057,1014135,Paris Jockey Plaza,47073-256644,,"CC Jockey Plaza, Javier Prado Oeste 4200",Surco,1° nivel,Lima,LIM,PE,,-76.97,-12.09,-300
37ab4eb6-226e-4c78-aff9-048858feaca8,113920,Rohnert Park & Commerce,5418-179167,,6277 Commerce Blvd,,,Rohnert Park,CA,US,94928,-122.71,38.35,-480
96b25dca-032b-4db8-ad9c-048892558d82,15096,Hopper & Cleveland,3456-86220,707-528-3116,860 Hopper Avenue,,,Santa Rosa,CA,US,954031611,-122.74,38.48,-480
e2595ad7-836e-4913-80ac-048a4e3f571a,1006497,诺亚新天地店,21834-215466,,牡丹江路318号,,诺亚新天地一楼,上海市,31,CN,200940,121.5,31.38,480
481c23a3-767b-49c1-b593-048d96906de2,14398,El Camino Real & La Costa,5767-5566,760-943-8004,7680 El Camino Real,#101,,Carlsbad,CA,US,920097934,-117.27,33.09,-480
8de48057-5a40-4e32-b110-0490e4077af5,1016452,温州置诚广场店,47891-258995,,浙江省温州市,,永嘉县瓯北镇双塔路,温州市,33,CN,325100,120.64,28.04,480
5c037d9d-c880-4388-b681-0493cf94b0d2,10875,Safeway-Anchorage #1809,3513-125945,907-339-0900,5600 Debarr Rd Ste 9,,,Anchorage,AK,US,995042300,-149.78,61.21,-540
860814a7-32b6-4deb-a263-049531372e70,113988,成都世代锦江,18723-194586,028-62321067,锦江区,一层,下南大街59号1栋1层附7,成都市,51,CN,610000,104.06,30.65,480
22dbbf11-90d6-4a22-a923-049706fee0cf,681,Inglewood - 11th ST SE and 9th Ave,4971-131631,403-263-0612,1139 9th Avenue SE,3,,Calgary,AB,CA,T2G 0S8,-114.04,51.04,-420
34d2ac93-1be8-4f40-afa8-04971bf58323,13351,Broxton & Weyburn,5494-404,310-209-1626,10955 West Weyburn,,,Los Angeles,CA,US,900242811,-118.45,34.06,-480
dda2c381-42e8-406d-980d-049889a4db8e,20329,Echelle,13114-116346,01 47 03 06 21,2 RUE DE I'ECHELLE,,,PARIS,J,FR,75001,2.33,48.86,60
09aae187-b076-42de-8d50-049dc78cdf76,1011832,Hospital Beneficencia Portuguesa,24812-236264,,"Rua Maestro Cardim, 769",,,Sao Paulo,SP,BR,,-46.64,-23.57,-120
c6c3f4ca-1e6a-4f00-8ab3-04a2fa03f1a7,10062,Target Panama City T-2208,76701-104529,850-236-3720,15555 Starfish St,,,Panama City Beach,FL,US,324132457,-85.88,30.22,-360
aa889ded-d822-461b-b1e3-04a3008311fa,1005332,Lotte Shopping Avenue,19625-199164,,"Jl. Prof Dr. Satrio Kav 3,5 Akret",Kuningan,,Jakarta,JW,ID,12930,106.82,-6.22,420
28d822be-57b9-40ac-a090-04a4527c9f77,12049,190th & Normandie,5651-1915,310-618-8339,1450 190th Street,Suite F,,Torrance,CA,US,905011138,-118.3,33.86,-480
36da5cc2-e2f1-44d4-99b0-04a97283758e,1006300,Daizawa 5-chome,20861-208524,,5-8-13 Daizawa,,,Setagaya-ku,13,JP,155-0032,139.67,35.66,540
3ca3d950-4a11-413f-8558-04add6fc33bd,454,Safeway-Lethbridge #2276,74730-97380,,1550 University Drive W,,,Lethbridge,AB,CA,T1J 4T3,-112.89,49.69,-420
c89d42da-969c-4109-8266-04ae553afc82,16623,Safeway-Hillsboro #1230,74303-77222,503-645-6631,2177 NW 185th,,,Hillsboro,OR,US,971247074,-122.87,45.54,-480
eab4391e-fc81-4008-8819-04b2af5d4549,18337,Westin Alexandria - Lobby,70379-103381,703-253-8691,Jamieson Avenue & Courthouse Square,,,Alexandria,VA,US,22314,-77.06,38.8,-300
9461574f-591f-4880-849c-04b472f28ac3,15866,Super Target Mundelein ST-1912,76250-91863,847-367-2650,3100 W Rt 60,,,Mundelein,IL,US,600604267,-88.02,42.26,-360
2127f0c2-f20a-446b-a024-04b5887e4496,87586,Garak bondong,17225-180406,,97-4 Garak-dong Songpa-gu,,,Seoul,11,KR,138-804,127.12,37.49,540
5fab4f40-9617-43e3-96ab-04b628087fe8,69776,Nanjing Linsen,16851-176225,,"No. 52, Sec. 1, Nanjing E. Rd, Zhongshan",,,Taipei City,TPE,TW,10444,121.53,25.05,480
f80d6f6b-c4db-4405-b8cc-04c1838d2104,16117,Albertsons-Ashland #573,73555-79347,541-482-6320,2301 Ashland St,,,Ashland,OR,US,975201407,-122.67,42.19,-480
b29c0eed-a676-4f1e-ac54-04c1a65c3de0,1007529,Hyatt Regency Austin,22017-212727,512-477-1234,208 Barton Springs Rd,,,Austin,TX,US,78704,-97.75,30.26,-360
cadc7941-e843-4d7f-92aa-04c1dabb7b96,92812,北美广场店,16631-173905,021-35326527,杨浦区,安莉芳大厦,昆明路508号,上海市,31,CN,200080,121.51,31.26,480
09775911-4318-4313-9840-04c568ec92a6,7638,Target Westminster NW T-2304,76797-108113,714-657-1351,200 Westminster Mall,,,Westminster,CA,US,926834984,-118.01,33.75,-480
d66d2a47-8754-4ca7-99ee-04c9b28d3f9c,9780,Target Louisville T-1071,76338-95740,502-326-9185,4101 Towne Center Dr,,,Louisville,KY,US,402414146,-85.56,38.3,-300
29fb5f33-57a4-4341-8e96-04cccffc0a4d,3691,AEON Sapporo Soen,30409-78927,,28 Kita 8-jo  Nishi 14-chome Chuo-ku,,,Sapporo,1,JP,060-0008,141.33,43.07,540
d7cb4eea-f7bb-4fc4-9d6f-04d38e9b8aba,8522,Little Cottonwood Shopping Center,9580-96901,801-576-0668,1960 East 9400 South,,,Sandy,UT,US,840933002,-111.84,40.58,-420
55f5d5f3-9e7d-412b-adfb-04d4c63214b5,9907,"Ashlan & Blythe, Fresno",10135-99629,559-276-8642,4441 W. Ashlan Ave.,,,Fresno,CA,US,937227021,-119.87,36.79,-480
b13b54bc-f265-4e11-86b8-04d605a86e5c,7923,7th & Park,10138-99888,562-433-8714,4740 E. 7th Street,,,Long Beach,CA,US,908044329,-118.14,33.78,-480
39815db3-d17e-4b23-bc92-04d65f10401d,17740,Safeway - Healdsburg #998,79584-106671,707-431-7102,1115 Vine,,,Healdsburg,CA,US,954484831,-122.87,38.61,-480
deaca191-8629-4ef5-a3f4-04d800c29dd8,1014392,Santa Monica & Robertson,5232-248024,8584729420,8951 Santa Monica Blvd.,,,West Hollywood,CA,US,90069,-118.39,34.08,-480
f104f0c1-8618-46c4-9d1e-04d9dc2d9530,161,Neubaugasse,40206-77760,43 1 3366332507,Neubaugasse 4,,,Wien,9,AT,1070,16.35,48.2,60
ef01363a-8f86-4050-b082-04e08abebb8d,90545,Ming & Ashe,17654-152412,661-836-6404,6451 Ming Avenue,,,Bakersfield,CA,US,93309,-119.07,35.33,-480
2b3ae0cc-ed26-446d-8c12-04e2ee695164,1012231,苏州常熟星光天地店,27331-247262,,闽江东路9号星光天地购物中心1楼06单元,,常熟星光天地购物中心,苏州市,32,CN,215500,120.77,31.67,480
339b9645-b139-4034-9fc4-04e9ec66ac29,1012038,Lakeside - West Thurrock Retail Pk,25369-237273,1708860672,Weston Avenue,,,West Thurrock,ENG,GB,RM20 3LP,0.27,51.49,0
403022b5-72c9-4d08-b90a-04ea07538774,42,Umm Sequeim,34291-80114,43952230,Jumeirah,Near Spinney's,,Dubai,DU,AE,,55.23,25.17,240
b5ccac00-2b25-46ed-a72e-04ea6e626ec4,1015353,Westheimer & Dairy Ashford Rd,27887-230685,2817536506,12555 Westheimer Road,,,Houston,TX,US,77077,-95.6,29.74,-360
e4c2056a-79d2-4ad8-83c7-04eecc6ead16,8513,Cumberland Ave & 21st St,10173-97266,865-673-0843,2021 Cumberland Avenue,,,Knoxville,TN,US,379162909,-83.94,35.95,-300
ef1f127c-bacd-4c82-80a1-04eef228ea04,1014672,Galerias Celaya,47823-259925,,Col. Las Compuertas Del Campestre,,,Celaya,GUA,MX,38080,-100.78,20.53,-360
b22ff713-114e-489d-9b59-04ef88876f3f,89660,Evolution Fresh Pine Street,16735-175204,206-682-7740,517 Pine Street,,,Seattle,WA,US,98101,-122.34,47.61,-480
c1545317-9190-47b8-9e52-04efbd1f96d0,10647,Atascocita & Will Clayton,11297-103802,281-812-1304,3805 Atascocita Road,,,Houston,TX,US,773963534,-95.22,29.98,-360
d6f8da84-dc2a-4c13-87ad-04f0b5874645,11411,SAN Terminal E-5,72372-6091,619-231-5100,3665 N. Harbor Drive,,,San Diego,CA,US,921011095,-117.2,32.73,-480
92404133-d19b-4612-b031-04f30fa3ea40,1009637,Gwangju Geumho DT,23979-233825,,"902-13, Ssangchon-dong, Seo-gu",,,Gwangju,29,KR,502-854,126.86,35.14,540
83931b4c-534b-47a5-aa34-04fa97da0b1e,1009272,Crossroads & 60 Fwy,23645-231368,626-522-6543,13350 Crossroads Parkway North,Suite A,,City of Industry,CA,US,91746,-118.01,34.03,-480
5b74f761-1994-4b8e-9e26-04fb2c53ae5d,11371,George Washington Univ Hospital,75238-85016,202-715-4187,900 23rd St NW,,,Washington,DC,US,200372342,-77.05,38.9,-300
30305716-d35b-4360-ac59-04fd7e829adc,1013242,Ayacucho,26539-230148,,"Avenida Santa Fe 1997, esquina Ayacucho",Recoleta,,Buenos Aires,C,AR,C1123AAB,-58.4,-34.6,-180
b2f4ed8f-261f-4878-8afa-0501f44e28a7,15781,Orlando Premium Outlet,8369-17074,407-239-4119,8200 Vineland Ave,Suite 1106,Orlando Premium Outlet Mall,Orlando,FL,US,328216822,-81.49,28.39,-300
146433a8-b2a9-41f6-b030-0502c4d332e5,12810,Super Target Clearwater ST-1820,76113-79324,727-431-0231,2747 Gulf To Bay Blvd,,,Clearwater,FL,US,337593945,-82.72,27.96,-300
515f7f38-6e02-4191-970d-050631dd41b8,1009243,York & Industrial,23619-230010,224.545.3067,624-A York Street,,,Elmhurst,IL,US,60126,-87.94,41.92,-360
aa8b1a46-6055-4c3d-a1be-05071d3cb2eb,1016375,Plaza Las Americas 2,50406-260544,,Ave. Roosevelt 525 Local 126,Centro Comercial Plaza Las Americas,,San Juan,PR,PR,0,-66.07,18.42,-240
d8687dc3-2247-49f4-a407-0507af6d00b7,1012558,University of Illinois-Illini Union,26120-162508,2173003152,1401 W Green St,,,Urbana,IL,US,618012953,-88.23,40.11,-360
9373cceb-1273-494f-90b0-0509e3afdfad,20146,Yuen Long Plaza,15497-162225,24799293,"Open Space, OS3, 2/F, Yuen Long Plaza,","Yuen Long, NT",,Yuen Long,91,CN,,114.02,22.44,480
416e363b-56c7-4abc-afa3-050a3264aab8,10785,Target Birdcage Citrus Heights T-11,76900-129846,916-966-5267,5837 Sunrise Blvd,,,Citrus Heights,CA,US,956106866,-121.27,38.67,-480
42909c8c-163e-45c8-8596-050c155a64ff,68743,Safeway-Oregon City #2993,16317-170380,503-655-8155,13434 Colton Pl,,,Oregon City,OR,US,97045,-122.57,45.34,-480
e30c7ef9-fb27-4ca9-9c8c-050cc5c8e4ce,1009693,Aberystwyth - Darkgate Street,24034-235326,,47-49 Great Darkgate Street,Aberystwyth,,Ceredigion,WLS,GB,SY23 1DW,-4.09,52.41,0
44f46cfc-bfa2-41ed-8fdf-0510032df421,3808,Akashi VIVRE,30156-28288,078-937-7114,1-3-2 Yurinokidori Okubocho,,,Akashi,28,JP,674-0068,134.94,34.68,540
896705aa-592a-4583-9dea-05122cb0fe8a,1012570,Plaza Oeste Santiago,26481-231904,,"Av. Americo Vespucio 1501, Local BA-104",,,Santiago,RM,CL,,-70.72,-33.52,-180
7287477b-bcea-4834-ac2e-05125da171e5,7311,King Soopers-Aurora #84,73961-82268,303-627-6060,6412 S Parker Rd,,,Aurora,CO,US,800163011,-104.8,39.6,-420
e6a67eaf-2a8b-422f-9dac-05135cb1e9ba,6026,Starbucks,31370-104066,216 3257176,Osmaniye Mah. Acibadem Cad.,B Blok No:97 D:8,,Istanbul,34,TR,34718,29.04,41,120
8ed1bb71-2ed5-4222-8cf6-0514f54315f3,116476,Songzhu Beitun,20284-204777,,"No.350, Sec.2, Songzhu Rd.",Beitun Dist.,,Taichung City,TXG,TW,40673,120.68,24.19,480
c9a0eb46-97f4-49f2-8cc3-0515b487fbb6,5803,Convent,33703-11378,844387318,"1/3, Sivadon Building",Convent Road,Sivadon Building,Bangluck,10,TH,10500,100.53,13.73,420
0041fab9-e2ea-4d6c-bb4d-051c5fe70779,14989,6th & Union,3289-8665,206/381-3743,1420 5th Ave,,City Center,Seattle,WA,US,981014087,-122.33,47.61,-480
13e18559-bdc9-4bf6-a2aa-051cb55feacc,15092,Target Chicago T-1879,76178-93198,773-579-2120,4433 S Pulaski,,,Chicago,IL,US,606324010,-87.72,41.81,-360
8d1c8453-8333-4425-b18f-051e850e0f8c,116583,Montrose Rd & Thorold Stone Road,18962-181665,905-358-8365,4030 Montrose Road,,,Niagara Falls,ON,CA,L2H 1K1,-79.12,43.11,-300
6a9ab4c2-55ea-4824-bcf7-052353b6847a,7935,US 80 & Veterans Pkwy,10067-98363,706-653-5520,6783 Veterans Parkway,,,Columbus,GA,US,319093147,-84.95,32.54,-300
ac4ddea4-e80b-42f4-a046-05262e28160f,1012473,Teavana - Guildford Town Centre,28336-250169,604-588-2753,10355 - 152nd St.,Ste. 1079,Guildford Town Centre,Surrey,BC,CA,V3R 7C1,-122.8,49.19,-480
66225f3c-9191-4aa8-adf4-0528942854e2,1012217,淮安盱眙苏宁广场店,26756-245285,,盱城镇金源北路12号,盱眙苏宁广场,苏宁广场107、108商铺,淮安市,32,CN,211700,118.52,33,480
e8e03634-84ac-4219-b8df-052cce6e0dbc,1434,Safeway-Edmonton #861,74483-96466,,8330 82nd Avenue NW,,,Edmonton,AB,CA,T6C 0Y6,-113.46,53.52,-420
d573aba9-ee39-43de-9e3a-052d2d0b0b21,1007855,Im Park Sam Yan,22334-218964,922464190,272 Soi Chula 22,"Wangmai, Pathum Wan",,Bangkok,10,TH,10330,100.52,13.74,420
51e8b778-68b3-423c-ad05-052e85403544,68201,Target Gastonia T-2565,16138-100072,704-691-6001,425 Cox Rd,,,Gastonia,NC,US,28054,-81.13,35.26,-300
7aee1ff5-56cf-45f2-8425-0537a2ebbadf,1008139,Brussel Grand Place,20374-205052,,Grand Place de Bruxelles 4,,,Brussels,VBR,BE,1000,4.36,50.84,60
844333f2-8afb-4de9-99c0-0539b87e7d0f,113832,Dajia,18865-196204,,"No.202, Shuntian Rd",Dajia District,,Taichung City,TXG,TW,43741,120.62,24.35,480
4469c1d2-940e-4bda-87ab-053bb41f18ba,1009793,Plaza Mayor II,24198-236545,,Blvd. Juan Alonso de Torres #2002,Col. Valle del Campestre,,Leon,GUA,MX,37150,-101.7,21.15,-360
949b924d-371d-457b-b8ed-053c6e355fec,1013383,Reel Cinema,27072-246650,,"Reel Cinema, Dubai Mall, Second Floor",,,Dubai,DU,AE,113444,55.6,24.78,240
1e659906-c35b-4039-8f42-053d285ada4c,1011251,Honduras,25324-219149,,Honduras 5550 Ciudad de Buenos Aires,,,Buenos Aires,C,AR,,-58.44,-34.58,-180
8e8883e9-5355-4d59-b6dd-053f3dff8f4d,1012982,Ingles Candler # 134,28688-237571,828-665-2861,1572 Sand Hill Rd,,,Candler,NC,US,28715,-82.66,35.55,-300
7e876e3b-8503-4613-9fa7-05434698af49,13651,Polaris Fashion Place Cafe,2638-29316,614-885-3366,1500 Polaris Parkway,Space 2066,Polaris Fashion Place,Columbus,OH,US,432402126,-82.98,40.15,-300
1ce92807-5e26-46ff-abb6-054530bc995e,1013776,BEANS Todakoen,27507-247908,,4-15-1 Honcho,,,Toda,11,JP,335-0023,139.68,35.81,540
f91498ee-7da6-4a24-ba7d-054aac97bc02,18090,Kroger - Knoxville #530,72550-101116,,9161 Middlebrook Pike,,,Knoxville,TN,US,379231438,-84.09,35.94,-300
92c37ea4-5547-4431-8cf7-054ac1cce9be,475,3737 Major Mackenzie Dr,4791-104690,905-303-7097,3737 Major Mackenzie Drive,101,Vellor Village,Vaughan,ON,CA,L4H 0A2,-79.56,43.84,-300
0f518cf0-c02d-4c12-91ef-054c400a4924,94741,Cineworld Crawley,18670-194104,01293 538242,Unit 1 Crawley Leisure Park,,,Crawley,ENG,GB,RH10 8LR,-0.18,51.12,0
5684f5f9-7958-43ca-a4a4-054f9c4f7c61,13419,East Greenwich/Main St,7678-37840,401-885-1291,555 Main Street,,East Greenwich Commons SC,East Greenwich,RI,US,28183645,-71.45,41.66,-300
4fe5f6f5-5545-4570-8ae7-05528ff3ee63,1014994,Highway 85 & Ellis,8231-248031,7707160814,140 Walker Pkwy,,,Fayetteville,GA,US,30214,-84.44,33.48,-300
2238a916-b0f6-4905-b079-055930d90583,12175,Vineyard Blvd & Monterey,5276-741,(408) 779-8692,251 Vineyard Town Center Way,,,Morgan Hill,CA,US,950375673,-121.64,37.11,-480
68ef0978-8383-47b7-85ae-05594d6189e6,14369,"Divisadero & U Street, Fresno",9391-96402,5592647490,1100 U Street,,,Fresno,CA,US,937211437,-119.78,36.74,-480
39715587-93aa-4d70-8c4a-05597b5fbcb2,582,Compass @ University of Toronto Mis,75482-115327,,3359 Mississauga Rd N,,,Mississauga,ON,CA,L5L 1C6,-79.66,43.55,-300
d4b8d4d6-7b50-437b-917f-055bd322a204,1009683,Jean-Talon & Casgrain,24024-235084,4389928417,150 Jean-Talon East,,,Montreal,QC,CA,H2R 1S7,-73.62,45.54,-300
6f0c31cc-0152-4be3-96a5-055e446d7bb0,12133,Duquesne University - Student Ctr,75267-79853,412-396-4251,600 Forbes Ave,,,Pittsburgh,PA,US,152193016,-79.99,40.44,-300
2602f217-ce7d-48f3-8eac-0562fdbcf84e,1088,Granville & Georgia,4410-30299,604/633-9801,720 Granville St,,Vancouver Centre,Vancouver,BC,CA,V6Z 1E4,-123.12,49.28,-480
e6f2bc91-f85d-4408-9a64-056a94ceb96e,17617,Fred Meyer - Redmond #664,72739-69200,425-556-8000,17667 NE 76th St,,,Redmond,WA,US,980524994,-122.1,47.67,-480
76aa9761-b048-4675-ac91-056b1902b49e,8577,Speedway Blvd.,10391-99041,704 979-1982,7741 Gateway Lane NW,Suite 130,,Concord,NC,US,280275412,-80.71,35.37,-300
53717fd2-80d8-4178-aa58-056c9b628719,11771,Tatum & Shea,5328-1010,(480) 607-0102,10625 North Tatum Boulevard,#104,Paradise Village Gateway,Phoenix,AZ,US,850283062,-111.98,33.58,-420
6ae69d99-332d-486b-a5fd-056d522473d9,1016562,Victoria Gardens South Mainstreet,8942-263704,,12443 S. Mainstreet,Space 1250,,Rancho Cucamonga,CA,US,91739,-117.53,34.11,-480
8af27254-b7a8-47c3-8faf-056d5e661118,1009114,Bao An Datong,23255-228925,,"No.11, Baoan St.",Datong Dist.,,Taipei City,TPE,TW,10346,121.51,25.06,480
3fadc4e8-9751-41ef-b71b-05700fe93f1a,12671,Target Palm Desert T-940,76212-92525,760-341-9307,72-549 Hwy 111,,,Palm Desert,CA,US,922603306,-116.4,33.72,-480
76d12ce9-32b3-45b4-b4dd-05718cfd1256,8894,Sheraton Salt Lake City - Lobby,75547-41002,801-401-2000,150 W 500th Street,,,Salt Lake City,UT,US,841012321,-111.9,40.76,-420
fd893acb-ec61-4248-aa1c-057194367fbb,1011141,LaLaPort EXPOCITY,25547-241534,,2-1 Senribanpakukoen,,,Suita,27,JP,565-0826,135.54,34.81,-120
01de2aab-2d0d-4f1e-8348-057417a551cb,8708,"ORD OHare Terminal 3, Baggage Claim",75762-95258,773-686-6180,Circular Building #6,,,Chicago,IL,US,60666,-87.9,41.98,-360
4ccbf1b8-7f47-4966-af04-057896c808ef,6631,"Bourne, Rt. 6",14474-113249,508-743-0351,2 Bridge Approach Street,,,Bourne,MA,US,25325679,-70.59,41.75,-300
7bf36416-18e9-4880-9e2a-057d0ddde83b,1006953,莆田万达广场分店,22531-215446,0594-2351911,城厢区,莆田万达广场地上一层 A177、A178 号铺位,荔华东大道8 号,莆田市,35,CN,351100,119,25.42,480
ffde0390-0365-4c3a-938f-057d2d907ff5,1008382,Sendai Ichinazaka,22224-218866,,3-10 Takadamacho Izumi-ku,,,Sendai,23,JP,981-3116,140.89,38.32,540
c8df9675-eff1-4396-9420-057d4bb25b7b,14138,Safeway-Seattle #1845,74399-83345,206-494-0433,8704 Greenwood Ave N,,,Seattle,WA,US,981033616,-122.35,47.69,-480
2b392c00-a3a1-4ed0-a12b-057d99dc6661,1015322,宁波天一开明街店,48196-262124,,浙江省宁波市,Ib106、Ib204、205室,海曙区开明街324号,宁波市,33,CN,315000,121.55,29.87,480
cbeba713-6aee-4f25-a715-0587355b161b,492,Safeway - Smithers #144,79648-107923,2508472622,3664 Highway 16,,,Smithers,BC,CA,V0J 2N0,-127.19,54.82,-480
2f754195-4022-4422-bb29-05879a53966e,7224,Fred Meyer - Idaho Falls #156,79335-100336,208-535-2520,1555 Northgate Mile,,,Idaho Falls,ID,US,834012014,-112.02,43.51,-420
2f7f0d32-507e-4ea5-9451-05882d6dbd44,7669,Safeway - Portland/Woodstock #1523,74376-101348,503-788-7600,4515 SE Woodstock,,,Woodstock,OR,US,972066222,-122.62,45.48,-480
920c7466-2117-4f33-a9f2-058a5d235684,20120,Puebla Huexotitla,3802-153447,,"Av.43 Oriente #5, Col Huexotitla",,,Puebla,PUE,MX,1770,-98.21,19.03,-360
3ca5e850-e65a-4872-907c-058ab5f72965,13304,Safeway-Vancouver #1519,74111-22843,360-891-4245,13719 SE Millplain Blvd.,,,Vancouver,WA,US,986846945,-122.53,45.62,-480
355ddbf7-a413-4b9a-a0a1-058db09b9623,69046,Real Once,16195-169224,,"Torre Real Once, Centro Empresarial,",San Isidro,,Lima,LIM,PE,27,-77.04,-12.1,0
ec407ab1-3004-44a7-9c97-059064635241,1010282,Richmond Road & Rolkin Road,7828-218624,4342954996,2040 Abbey Road,Suite 105,,Charlottesville,VA,US,22911,-78.44,38.03,-300
926b3162-f3d7-4b92-940b-0591659c2069,1313,Village Green,4221-46,(250) 260-1488,4900 27th Street,,,Vernon,BC,CA,V1T 7G7,-119.27,50.28,-480
b70a3baa-4396-44e1-9d8f-0592c2b7bb77,9644,Lynnhaven Parkway,9678-93127,(757) 463-1376,660-101 Phoenix Avenue,,,Virginia Beach,VA,US,234527317,-76.07,36.82,-300
a247ba18-0c1d-4c2f-8926-0592f4490cca,12580,8th & Walnut,8881-94555,215-627-2945,200 Washington Square West,,The St. James,Philadelphia,PA,US,191063513,-75.15,39.95,-300
b8b24874-9c5d-4979-9c24-0595715ddd33,1015040,Arevalo,47294-254164,,"Nicaragua 6045, CABA",,,Buenos Aires,B,AR,,-58.44,-34.58,-180
f75b2a57-3173-42ca-8beb-059db21737f2,68690,Target Norcross T-982,15609-145308,770-849-0885,3200 Holcolmb Bridge Rd,,,Norcross,GA,US,300923361,-84.23,33.97,-300
3d347166-2aa9-4953-ab2b-059ddc09dff1,1007718,1304 Commonwealth Ave.,22253-218826,6175661074,1304 Commonwealth Avenue,,,Boston,MA,US,2134,-71.13,42.35,-300
046733d1-23e3-4b6a-911d-05a069e3f326,1008397,SIM - clementi centre,22315-215206,,"535A CLEMENTI ROAD,blk C,C01-04",,SIM Clementi,Singapore,3,SG,599490,103.78,1.33,480
32d14b3f-3d66-45ef-953b-05a53973c23d,1005166,武汉东合中心店,19319-196926,027-84890108,沌口经济开发区,东合中心一层,东风3路15号,武汉市,42,CN,430000,114.16,30.51,480
b5e0d155-799d-4130-95bb-05a69f4ebfd5,8744,"Salem, OR",411-181,(503) 375-2156,399 Court Street NE,,,Salem,OR,US,973013526,-123.04,44.94,-480
62f07678-51b0-4c69-8a6e-05a88084aa85,1011949,Central Ave & San Fernando Rd,24874-238884,8182546339,3900 San Fernando Road,Retail E,,Glendale,CA,US,91204,-118.26,34.13,-480
2b863dc2-54e4-4459-a6d1-05ae7011c756,66362,Juana Azurduy,13054-156007,,"Av. Cabildo 3500, esq. Juana Azurduy",,,Buenos Aires,C,AR,C1429AAS,-58.47,-34.55,-180
31808e66-ab8e-414d-85ef-05b05f577adb,1013187,Orland,26877-242964,5309667828,110 Frances Lane,,,Orland,CA,US,95963,-122.2,39.75,-480
2db874d9-ad69-492c-8d4d-05b61cf54528,1012383,Teavana - Shops at Mission Viejo,28197-250115,949-364-5480,638 THE SHOPS AT MISSION VIEJO,,Shops at Mission Viejo,MISSION VIEJO,CA,US,92691,-117.67,33.56,-480
c0db3e6d-5f84-463d-bbd3-05bd5f87de28,1015636,96广场店,49309-268028,,上海市浦东新区,,东方路796号153 173单元,上海市,31,CN,200120,121.52,31.23,480
293f8cb4-013f-4fa9-b5d2-05c18070ddd7,7055,Target Lanesborough T-2127,76550-98561,413-499-1379,655 Cheshire Rd,,,Lanesboro,MA,US,12379706,-73.18,42.54,-300
ab915752-e147-4080-a155-05c1a3b2ad0d,6930,6024 Ridge Avenue,13386-106818,215 487-0830,6024 Ridge Avenue,,Roxborough Ridge Commons,Philadelphia,PA,US,191281601,-75.21,40.03,-300
3cf28ddb-5634-4af1-ac98-05c3d3d446a4,1009934,Aswak Beirut,24188-231168,,Majidiye,,,Beirut,BI,LB,,35.51,33.9,120
18633e86-896e-4228-9ec7-05ce731a6a99,16029,Campus & California,622-345,(949) 854-2301,4545 Campus Drive,,,Irvine,CA,US,926122621,-117.83,33.65,-480
aeae4315-11b7-442d-9c10-05d03c7677ed,91363,164th & Bothell Hwy,18628-193714,425-745-0220,16314 Bothell Everett Hwy,,,Mill Creek,WA,US,98012,-122.22,47.85,-480
494bbd96-84c4-43f3-af38-05d05a12c49d,1015498,Timnath - I25 and E. Harmony Rd,26207-240130,9702787363,I25 and E. Harmony Rd,,,Tinmath,CO,US,80547,-104.99,40.52,-420
f7c4d1e0-bcd1-45fe-9edf-05d169b5af76,15639,Beverly & Robertson,5871-30359,310-659-7370,164 N. Robertson,,,West Hollywood,CA,US,900483109,-118.38,34.08,-480
2476e001-7f2d-4cd6-ae71-05d8165a7222,1014573,花木plus乐坊店,48105-261564,,上海市浦东新区,,芳甸路1364号,上海市,31,CN,201204,121.56,31.21,480
f1313aa5-f4a0-499c-97ed-05d827c4ae4a,88730,200 S. Michigan Avenue,16309-157064,3124311757,200 S Michigan Ave,,,Chicago,IL,US,606042402,-87.62,41.88,-360
124f7b88-0142-421a-bcf6-05dd1ad356db,1014637,瑞金医院门诊大楼店,47215-257225,,上海市黄浦区,,瑞金二路197号门诊大楼一楼,上海市,31,CN,200025,121.47,31.21,480
4f706afd-9882-485b-9729-05e0e3383a48,116483,Castleton Square Mall Kiosk,19031-196084,3178427480,6020 East 82nd Street,,Castleton Square Mall,Indianapolis,IN,US,46250,-86.07,39.91,-300
74d5f7b9-dc9e-4f34-986d-05e490d591ba,1005674,Galerias Campeche,20432-205546,,Av Pedro Sainz de Barranda s/n  esq.,Av. Darsena,,CAMPECHE,CAM,MX,24014,-90.52,19.86,-360
55df4b77-de60-4e35-8b26-05eaad6c2fc7,1010046,北京东三环北店,24520-237564,,朝阳区,嘉铭中心大厦A座B1层024商铺,东三环北路27号,北京市,11,CN,,116.46,39.93,480
10516fd9-5858-403c-8683-05ebb5c57966,1010327,Carmel Valley & Del Mar Heights Rd,24716-237010,8582450911,5980 Village Way,B101,,San Diego,CA,US,92130,-117.19,32.96,-480
45a74e6f-5026-48b8-820e-05f07bb35e27,1014593,Endulus Park,28107-247536,,Ahmet Yesevi Mh. Sanayi Cd.,"No : 451 Balat, Nilufer",,Bursa,16,TR,16140,28.95,40.27,120
710d6b46-0e88-4179-b7a1-05f6fd716393,1007099,Huntingdon Valley Shopping Center,21386-208584,2152089196,789 Huntingdon Pike,,,Abington,PA,US,19006,-75.09,40.09,-300
daafb8ed-c411-4c50-b3ae-05f700ce9065,1013606,26th between 10th and 11th,25274-240368,347-387-7428,525 West 26th St,,,New York,NY,US,10001,-74,40.75,-300
919816d5-492e-40a4-8dd0-05fb34c00a13,7991,"Scottsdale & McKellips, Tempe",9623-97419,480-941-6046,1926 N. Scottsdale Rd.,,,Tempe,AZ,US,852811517,-111.93,33.45,-420
53208f54-51d1-49e6-99d8-05fea6e8bbc2,4330,Shinjuku Subnade,32015-126365,,Subnade 1 Kabukicho,,,Shinjuku-ku,13,JP,160-0021,139.7,35.69,540
ef1472a8-5b5b-4896-956c-05fec6ec9c72,89864,La Defense Metro Station,16684-170824,,Galerie marchande de la Grande Arche,,,Puteaux,J,FR,92800,2.24,48.89,60
3b3d0e25-14bc-4ea8-878b-060262592db2,1007029,Isehara Naruse,21122-209309,,2008-1 Shimokasuya,,,Isehara,14,JP,259-1143,139.32,35.41,540
68a2b645-2c18-4faa-b739-0610d3729dcd,87431,Zenith Square,16794-175947,,"1407 U-dong, Haeundae-gu",,,Busan,26,KR,612-824,129.14,35.16,540
b679a3ce-85c2-454e-8eda-061151401855,9962,Safeway - Flagstaff #1225,79536-101003,928-774-3774,1500 East Cedar Ave,,,Flagstaff,AZ,US,860041641,-111.62,35.22,-420
19875324-32d4-4a09-816c-06139d99ed40,18606,Harper's Station,2520-30979,513-469-1111,11397  Montgomery Rd.,# D,,Cincinnati,OH,US,452492333,-84.33,39.27,-300
fe0bab2a-5a11-497d-8206-0613abe185d6,12069,Church & Market - S.F.,5396-1025,(415) 431-5561,2018 Market Street,,,San Francisco,CA,US,941141314,-122.43,37.77,-480
bd07dc95-d563-4556-8ab3-06158a864532,69876,Follett-Fairfield University,16976-171604,203-255-7910,1499 Post Rd,,,Fairfield,CT,US,68245940,-73.26,41.14,-300
bc2d2e2f-0899-4cd2-86e9-06179d14c82c,17032,"Adams & Felton, San Diego",13640-106841,619-282-2962,3352 Adams Avenue,,,San Diego,CA,US,921161822,-117.12,32.76,-480
48e3e6f9-7e33-48b3-9b5f-06183f93513f,394,Safeway-Winnipeg #359,70329-139744,,1610 Ness Avenue,,,Winnipeg,MB,CA,R3J 3X3,-97.21,49.88,-360
fda55b40-ec47-4532-8367-0618ffaa7e0f,16981,"Twinsburg, East Aurora Road",11857-105391,330-425-1233,2728 East Aurora Road,Bld A,82/91 Plaza,Twinsburg,OH,US,440872152,-81.44,41.31,-300
d5374267-4b5a-4634-973c-061bb851eb24,6071,CMU - Children Medical Build 1st Fl,31289-107318,,"No. 2, Yude Road",Children Medical Building - 1st Floor,,Taichung City,TXG,TW,404,120.74,24.26,480
3fd91503-562a-4bbe-8116-061d26d63939,18517,SMF Sac Term A Lower Level Baggage,75730-95569,,6942 Airport Blvd.,,,Sacramento,CA,US,958371109,-121.59,38.69,-480
a7ff9adc-2deb-4f62-996d-061ebc6e4e8e,88964,Omiya MARUI,17309-180744,,2-3 Sakuragicho Omiya-ku,,,330-9501,11,JP,330-0854,139.62,35.91,540
d70f53d8-b07a-4eab-b3b4-062187fe0469,6802,Brownfield & Milwaukee,11860-105901,806-795-1508,5014 Milwaukee,,,Lubbock,TX,US,794073807,-101.96,33.55,-360
8a1a075d-6b49-4398-aaed-06276985fcd1,17574,Garden City-Cranston,7355-1046,(401) 464-8235,4 Midway Road,,The Village at Garden City,Cranston,RI,US,29205708,-71.46,41.76,-300
34d0204f-8e9f-45e3-be5a-0629f976d1f9,1015556,Ayala Malls The 30th,29934-255996,,G/F The 30th Mall,Meralco Avenue,,Pasig City,0,PH,1603,121.06,14.57,480
886cc736-6736-4da1-a7dd-062c531a7a81,51997,7th & Washington- Eugene,3409-155584,5416840984,495 West 7th Avenue,Suite 1,,Eugene,OR,US,974012511,-123.1,44.05,-480
